country,state,city,station,last_update,latitude,longitude,pollutant_id,min_value,max_value,avg_value,composite_key
India,Bihar,Muzaffarpur,"Buddha Colony, Muzaffarpur - BSPCB",2026-07-03 19:00:00,26.11442,85.39813,PM10,53.0,88.0,70.0,"Buddha Colony, Muzaffarpur - BSPCB|PM10|2026-07-03 19:00:00"
India,Bihar,Muzaffarpur,"Buddha Colony, Muzaffarpur - BSPCB",2026-07-03 19:00:00,26.11442,85.39813,OZONE,8.0,81.0,45.0,"Buddha Colony, Muzaffarpur - BSPCB|OZONE|2026-07-03 19:00:00"
India,Bihar,Patna,"DRM Office Danapur, Patna - BSPCB",2026-07-03 19:00:00,25.586562,85.043586,PM10,42.0,62.0,49.0,"DRM Office Danapur, Patna - BSPCB|PM10|2026-07-03 19:00:00"
India,Bihar,Patna,"DRM Office Danapur, Patna - BSPCB",2026-07-03 19:00:00,25.586562,85.043586,NO2,29.0,35.0,32.0,"DRM Office Danapur, Patna - BSPCB|NO2|2026-07-03 19:00:00"
India,Bihar,Patna,"DRM Office Danapur, Patna - BSPCB",2026-07-03 19:00:00,25.586562,85.043586,NH3,9.0,10.0,9.0,"DRM Office Danapur, Patna - BSPCB|NH3|2026-07-03 19:00:00"
India,Bihar,Patna,"Rajbansi Nagar, Patna - BSPCB",2026-07-03 19:00:00,25.599486,85.113666,NH3,2.0,3.0,3.0,"Rajbansi Nagar, Patna - BSPCB|NH3|2026-07-03 19:00:00"
India,Bihar,Patna,"Rajbansi Nagar, Patna - BSPCB",2026-07-03 19:00:00,25.599486,85.113666,CO,36.0,40.0,38.0,"Rajbansi Nagar, Patna - BSPCB|CO|2026-07-03 19:00:00"
India,Bihar,Patna,"Govt. High School Shikarpur, Patna - BSPCB",2026-07-03 19:00:00,25.592539,85.227158,NO2,11.0,12.0,12.0,"Govt. High School Shikarpur, Patna - BSPCB|NO2|2026-07-03 19:00:00"
India,Bihar,Patna,"Samanpura, Patna - BSPCB",2026-07-03 19:00:00,25.596727,85.085624,PM2.5,58.0,158.0,89.0,"Samanpura, Patna - BSPCB|PM2.5|2026-07-03 19:00:00"
India,Bihar,Patna,"Samanpura, Patna - BSPCB",2026-07-03 19:00:00,25.596727,85.085624,SO2,3.0,5.0,4.0,"Samanpura, Patna - BSPCB|SO2|2026-07-03 19:00:00"
India,Bihar,Patna,"IGSC Planetarium Complex, Patna - BSPCB",2026-07-03 19:00:00,25.610369,85.132568,NO2,1.0,3.0,2.0,"IGSC Planetarium Complex, Patna - BSPCB|NO2|2026-07-03 19:00:00"
India,Bihar,Patna,"IGSC Planetarium Complex, Patna - BSPCB",2026-07-03 19:00:00,25.610369,85.132568,NH3,,,,"IGSC Planetarium Complex, Patna - BSPCB|NH3|2026-07-03 19:00:00"
India,Bihar,Patna,"IGSC Planetarium Complex, Patna - BSPCB",2026-07-03 19:00:00,25.610369,85.132568,SO2,1.0,28.0,13.0,"IGSC Planetarium Complex, Patna - BSPCB|SO2|2026-07-03 19:00:00"
India,Bihar,Patna,"IGSC Planetarium Complex, Patna - BSPCB",2026-07-03 19:00:00,25.610369,85.132568,OZONE,59.0,60.0,60.0,"IGSC Planetarium Complex, Patna - BSPCB|OZONE|2026-07-03 19:00:00"
India,Bihar,Purnia,"Mariam Nagar, Purnia - BSPCB",2026-07-03 19:00:00,25.366336,87.117468,SO2,16.0,17.0,16.0,"Mariam Nagar, Purnia - BSPCB|SO2|2026-07-03 19:00:00"
India,Bihar,Gaya,"SFTI Kusdihra, Gaya - BSPCB",2026-07-03 19:00:00,24.762518,84.982348,PM2.5,24.0,47.0,37.0,"SFTI Kusdihra, Gaya - BSPCB|PM2.5|2026-07-03 19:00:00"
India,Bihar,Gaya,"SFTI Kusdihra, Gaya - BSPCB",2026-07-03 19:00:00,24.762518,84.982348,PM10,31.0,50.0,42.0,"SFTI Kusdihra, Gaya - BSPCB|PM10|2026-07-03 19:00:00"
India,Bihar,Gaya,"SFTI Kusdihra, Gaya - BSPCB",2026-07-03 19:00:00,24.762518,84.982348,CO,13.0,23.0,18.0,"SFTI Kusdihra, Gaya - BSPCB|CO|2026-07-03 19:00:00"
India,Bihar,Gaya,"Kareemganj, Gaya - BSPCB",2026-07-03 19:00:00,24.792403,84.992416,PM2.5,7.0,133.0,37.0,"Kareemganj, Gaya - BSPCB|PM2.5|2026-07-03 19:00:00"
India,Bihar,Hajipur,"Industrial Area, Hajipur - BSPCB",2026-07-03 19:00:00,25.697189,85.2459,NO2,6.0,15.0,10.0,"Industrial Area, Hajipur - BSPCB|NO2|2026-07-03 19:00:00"
India,Bihar,Hajipur,"Industrial Area, Hajipur - BSPCB",2026-07-03 19:00:00,25.697189,85.2459,NH3,10.0,19.0,14.0,"Industrial Area, Hajipur - BSPCB|NH3|2026-07-03 19:00:00"
India,Bihar,Kishanganj,"SDM Office_Khagra, Kishanganj - BSPCB",2026-07-03 19:00:00,26.0881305,87.93840336,PM2.5,42.0,150.0,66.0,"SDM Office_Khagra, Kishanganj - BSPCB|PM2.5|2026-07-03 19:00:00"
India,Bihar,Manguraha,"Forest Rest House, Manguraha - BSPCB",2026-07-03 19:00:00,27.308328,84.531742,PM10,,,,"Forest Rest House, Manguraha - BSPCB|PM10|2026-07-03 19:00:00"
India,Bihar,Motihari,"Gandak Colony, Motihari - BSPCB",2026-07-03 19:00:00,26.63086,84.90051,CO,10.0,14.0,12.0,"Gandak Colony, Motihari - BSPCB|CO|2026-07-03 19:00:00"
India,Bihar,Munger,"Town Hall, Munger - BSPCB",2026-07-03 19:00:00,25.376776,86.471523,PM10,7.0,78.0,37.0,"Town Hall, Munger - BSPCB|PM10|2026-07-03 19:00:00"
India,Bihar,Munger,"Town Hall, Munger - BSPCB",2026-07-03 19:00:00,25.376776,86.471523,CO,44.0,50.0,46.0,"Town Hall, Munger - BSPCB|CO|2026-07-03 19:00:00"
India,Bihar,Muzaffarpur,"Muzaffarpur Collectorate, Muzaffarpur - BSPCB",2026-07-03 19:00:00,26.1209,85.3647,NH3,,,,"Muzaffarpur Collectorate, Muzaffarpur - BSPCB|NH3|2026-07-03 19:00:00"
India,Andhra Pradesh,Chittoor,"Gangineni Cheruvu, Chittoor - APPCB",2026-07-03 19:00:00,13.20488,79.097889,SO2,13.0,17.0,16.0,"Gangineni Cheruvu, Chittoor - APPCB|SO2|2026-07-03 19:00:00"
India,Andhra Pradesh,Chittoor,"Gangineni Cheruvu, Chittoor - APPCB",2026-07-03 19:00:00,13.20488,79.097889,CO,14.0,23.0,18.0,"Gangineni Cheruvu, Chittoor - APPCB|CO|2026-07-03 19:00:00"
India,Andhra Pradesh,Chittoor,"Gangineni Cheruvu, Chittoor - APPCB",2026-07-03 19:00:00,13.20488,79.097889,OZONE,32.0,50.0,41.0,"Gangineni Cheruvu, Chittoor - APPCB|OZONE|2026-07-03 19:00:00"
India,Andhra Pradesh,Eluru,"District Court, Eluru - APPCB",2026-07-03 19:00:00,16.711754,81.092095,NO2,7.0,31.0,18.0,"District Court, Eluru - APPCB|NO2|2026-07-03 19:00:00"
India,Andhra Pradesh,Eluru,"District Court, Eluru - APPCB",2026-07-03 19:00:00,16.711754,81.092095,OZONE,5.0,9.0,7.0,"District Court, Eluru - APPCB|OZONE|2026-07-03 19:00:00"
India,Andhra Pradesh,Guntur,"Rajendra Nagar North, Guntur - APPCB",2026-07-03 19:00:00,16.316553,80.413302,NO2,18.0,65.0,32.0,"Rajendra Nagar North, Guntur - APPCB|NO2|2026-07-03 19:00:00"
India,Andhra Pradesh,Kadapa,"Yerramukkapalli, Kadapa - APPCB",2026-07-03 19:00:00,14.465052,78.824187,NH3,8.0,24.0,20.0,"Yerramukkapalli, Kadapa - APPCB|NH3|2026-07-03 19:00:00"
India,Andhra Pradesh,Machilipatnam,"Srinivas Nagar Colony, Machilipatnam - APPCB",2026-07-03 19:00:00,16.186555,81.13219,PM10,56.0,71.0,62.0,"Srinivas Nagar Colony, Machilipatnam - APPCB|PM10|2026-07-03 19:00:00"
India,Andhra Pradesh,Machilipatnam,"Srinivas Nagar Colony, Machilipatnam - APPCB",2026-07-03 19:00:00,16.186555,81.13219,OZONE,28.0,44.0,33.0,"Srinivas Nagar Colony, Machilipatnam - APPCB|OZONE|2026-07-03 19:00:00"
India,Andhra Pradesh,Nellore,"Ambedkar Nagar, Nellore - APPCB",2026-07-03 19:00:00,14.438164,79.966814,NO2,25.0,28.0,27.0,"Ambedkar Nagar, Nellore - APPCB|NO2|2026-07-03 19:00:00"
India,Andhra Pradesh,Vijayawada,"HB Colony, Vijayawada - APPCB",2026-07-03 19:00:00,16.536107,80.594233,PM2.5,60.0,74.0,67.0,"HB Colony, Vijayawada - APPCB|PM2.5|2026-07-03 19:00:00"
India,Andhra Pradesh,Vijayawada,"HB Colony, Vijayawada - APPCB",2026-07-03 19:00:00,16.536107,80.594233,NO2,20.0,31.0,25.0,"HB Colony, Vijayawada - APPCB|NO2|2026-07-03 19:00:00"
India,Andhra Pradesh,Vijayawada,"Kanuru, Vijayawada - APPCB",2026-07-03 19:00:00,16.486692,80.699436,PM10,,,,"Kanuru, Vijayawada - APPCB|PM10|2026-07-03 19:00:00"
India,Andhra Pradesh,Vijayawada,"Kanuru, Vijayawada - APPCB",2026-07-03 19:00:00,16.486692,80.699436,SO2,4.0,24.0,15.0,"Kanuru, Vijayawada - APPCB|SO2|2026-07-03 19:00:00"
India,Andhra Pradesh,Visakhapatnam,"GVM Corporation, Visakhapatnam - APPCB",2026-07-03 19:00:00,17.72,83.3,NH3,3.0,3.0,3.0,"GVM Corporation, Visakhapatnam - APPCB|NH3|2026-07-03 19:00:00"
India,Assam,Byrnihat,"Central Academy for SFS, Byrnihat - PCBA",2026-07-03 19:00:00,26.071318,91.87488,NO2,3.0,8.0,6.0,"Central Academy for SFS, Byrnihat - PCBA|NO2|2026-07-03 19:00:00"
India,Assam,Guwahati,"Pan Bazaar, Guwahati - PCBA",2026-07-03 19:00:00,26.1875,91.744194,PM2.5,,,,"Pan Bazaar, Guwahati - PCBA|PM2.5|2026-07-03 19:00:00"
India,Assam,Guwahati,"Pan Bazaar, Guwahati - PCBA",2026-07-03 19:00:00,26.1875,91.744194,PM10,,,,"Pan Bazaar, Guwahati - PCBA|PM10|2026-07-03 19:00:00"
India,Assam,Guwahati,"Pan Bazaar, Guwahati - PCBA",2026-07-03 19:00:00,26.1875,91.744194,NO2,0.0,0.0,0.0,"Pan Bazaar, Guwahati - PCBA|NO2|2026-07-03 19:00:00"
India,Assam,Guwahati,"Pan Bazaar, Guwahati - PCBA",2026-07-03 19:00:00,26.1875,91.744194,NH3,1.0,1.0,1.0,"Pan Bazaar, Guwahati - PCBA|NH3|2026-07-03 19:00:00"
India,Assam,Guwahati,"Pan Bazaar, Guwahati - PCBA",2026-07-03 19:00:00,26.1875,91.744194,SO2,30.0,33.0,32.0,"Pan Bazaar, Guwahati - PCBA|SO2|2026-07-03 19:00:00"
India,Assam,Nalbari,"Bata Chowk, Nalbari - PCBA",2026-07-03 19:00:00,26.446912,91.439057,PM2.5,,,,"Bata Chowk, Nalbari - PCBA|PM2.5|2026-07-03 19:00:00"
India,Assam,Silchar,"Tarapur, Silchar - PCBA",2026-07-03 19:00:00,24.82827,92.79525,PM10,39.0,51.0,44.0,"Tarapur, Silchar - PCBA|PM10|2026-07-03 19:00:00"
India,Assam,Sivasagar,"Girls College, Sivasagar - PCBA",2026-07-03 19:00:00,26.987634,94.636574,PM2.5,9.0,11.0,10.0,"Girls College, Sivasagar - PCBA|PM2.5|2026-07-03 19:00:00"
India,Assam,Sivasagar,"Girls College, Sivasagar - PCBA",2026-07-03 19:00:00,26.987634,94.636574,NH3,6.0,15.0,9.0,"Girls College, Sivasagar - PCBA|NH3|2026-07-03 19:00:00"
India,Bihar,Araria,"Kharahiya Basti, Araria - BSPCB",2026-07-03 19:00:00,26.146529,87.454184,PM10,44.0,117.0,60.0,"Kharahiya Basti, Araria - BSPCB|PM10|2026-07-03 19:00:00"
India,Bihar,Araria,"Kharahiya Basti, Araria - BSPCB",2026-07-03 19:00:00,26.146529,87.454184,CO,3.0,9.0,6.0,"Kharahiya Basti, Araria - BSPCB|CO|2026-07-03 19:00:00"
India,Bihar,Arrah,"New DM Office, Arrah - BSPCB",2026-07-03 19:00:00,25.5626095,84.663264,PM2.5,40.0,58.0,48.0,"New DM Office, Arrah - BSPCB|PM2.5|2026-07-03 19:00:00"
India,Bihar,Arrah,"New DM Office, Arrah - BSPCB",2026-07-03 19:00:00,25.5626095,84.663264,NO2,7.0,8.0,7.0,"New DM Office, Arrah - BSPCB|NO2|2026-07-03 19:00:00"
India,Bihar,Bettiah,"Kamalnath Nagar, Bettiah - BSPCB",2026-07-03 19:00:00,26.80365,84.51954,PM2.5,,,,"Kamalnath Nagar, Bettiah - BSPCB|PM2.5|2026-07-03 19:00:00"
India,Bihar,Bettiah,"Kamalnath Nagar, Bettiah - BSPCB",2026-07-03 19:00:00,26.80365,84.51954,OZONE,22.0,26.0,24.0,"Kamalnath Nagar, Bettiah - BSPCB|OZONE|2026-07-03 19:00:00"
India,Bihar,Bhagalpur,"Mayaganj, Bhagalpur - BSPCB",2026-07-03 19:00:00,25.265194,87.012947,PM2.5,,,,"Mayaganj, Bhagalpur - BSPCB|PM2.5|2026-07-03 19:00:00"
India,Bihar,Bihar Sharif,"D M Colony, Bihar Sharif - BSPCB",2026-07-03 19:00:00,25.204762,85.51496,CO,103.0,105.0,104.0,"D M Colony, Bihar Sharif - BSPCB|CO|2026-07-03 19:00:00"
India,Bihar,Buxar,"Charitra Van, Buxar - BSPCB",2026-07-03 19:00:00,25.56752,83.966379,NH3,3.0,3.0,3.0,"Charitra Van, Buxar - BSPCB|NH3|2026-07-03 19:00:00"
India,Bihar,Buxar,"Charitra Van, Buxar - BSPCB",2026-07-03 19:00:00,25.56752,83.966379,CO,17.0,27.0,24.0,"Charitra Van, Buxar - BSPCB|CO|2026-07-03 19:00:00"
India,Bihar,Chhapra,"Darshan Nagar, Chhapra - BSPCB",2026-07-03 19:00:00,25.7808257,84.7446768,SO2,,,,"Darshan Nagar, Chhapra - BSPCB|SO2|2026-07-03 19:00:00"
India,Andhra Pradesh,Rajamahendravaram,"Anand Kala Kshetram, Rajamahendravaram - APPCB",2026-07-03 19:00:00,16.9872867,81.7363176,PM2.5,,,,"Anand Kala Kshetram, Rajamahendravaram - APPCB|PM2.5|2026-07-03 19:00:00"
India,Andhra Pradesh,Rajamahendravaram,"Anand Kala Kshetram, Rajamahendravaram - APPCB",2026-07-03 19:00:00,16.9872867,81.7363176,OZONE,6.0,19.0,12.0,"Anand Kala Kshetram, Rajamahendravaram - APPCB|OZONE|2026-07-03 19:00:00"
India,Andhra Pradesh,Tirumala,"Toll Gate, Tirumala - APPCB",2026-07-03 19:00:00,13.67,79.35,PM10,17.0,46.0,30.0,"Toll Gate, Tirumala - APPCB|PM10|2026-07-03 19:00:00"
India,Andhra Pradesh,Tirupati,"Vaikuntapuram, Tirupati - APPCB",2026-07-03 19:00:00,13.615387,79.40923,PM2.5,42.0,61.0,50.0,"Vaikuntapuram, Tirupati - APPCB|PM2.5|2026-07-03 19:00:00"
India,Andhra Pradesh,Vijayawada,"Rajiv Gandhi Park, Vijayawada - APPCB",2026-07-03 19:00:00,16.509717,80.612222,PM10,64.0,92.0,79.0,"Rajiv Gandhi Park, Vijayawada - APPCB|PM10|2026-07-03 19:00:00"
India,Andhra Pradesh,Vijayawada,"Rajiv Gandhi Park, Vijayawada - APPCB",2026-07-03 19:00:00,16.509717,80.612222,NH3,2.0,6.0,4.0,"Rajiv Gandhi Park, Vijayawada - APPCB|NH3|2026-07-03 19:00:00"
India,Assam,Guwahati,"IITG, Guwahati - PCBA",2026-07-03 19:00:00,26.2028636,91.70046436,OZONE,3.0,15.0,9.0,"IITG, Guwahati - PCBA|OZONE|2026-07-03 19:00:00"
India,Assam,Guwahati,"Railway Colony, Guwahati - PCBA",2026-07-03 19:00:00,26.181742,91.78063,PM2.5,0.0,90.0,47.0,"Railway Colony, Guwahati - PCBA|PM2.5|2026-07-03 19:00:00"
India,Assam,Guwahati,"Railway Colony, Guwahati - PCBA",2026-07-03 19:00:00,26.181742,91.78063,NO2,3.0,4.0,3.0,"Railway Colony, Guwahati - PCBA|NO2|2026-07-03 19:00:00"
India,Assam,Guwahati,"Railway Colony, Guwahati - PCBA",2026-07-03 19:00:00,26.181742,91.78063,OZONE,21.0,34.0,28.0,"Railway Colony, Guwahati - PCBA|OZONE|2026-07-03 19:00:00"
India,Andhra Pradesh,Anantapur,"Gulzarpet, Anantapur - APPCB",2026-07-03 19:00:00,14.675886,77.593027,SO2,11.0,18.0,13.0,"Gulzarpet, Anantapur - APPCB|SO2|2026-07-03 19:00:00"
India,Andhra Pradesh,Chittoor,"Gangineni Cheruvu, Chittoor - APPCB",2026-07-03 19:00:00,13.20488,79.097889,PM2.5,59.0,76.0,64.0,"Gangineni Cheruvu, Chittoor - APPCB|PM2.5|2026-07-03 19:00:00"
India,Assam,Nagaon,"Christianpatty, Nagaon - PCBA",2026-07-03 19:00:00,26.349082,92.68449,PM10,41.0,75.0,57.0,"Christianpatty, Nagaon - PCBA|PM10|2026-07-03 19:00:00"
India,Delhi,Delhi,"Rohini, Delhi - DPCC",2026-07-03 19:00:00,28.732528,77.11992,NO2,16.0,42.0,26.0,"Rohini, Delhi - DPCC|NO2|2026-07-03 19:00:00"
India,Delhi,Delhi,"Vivek Vihar, Delhi - DPCC",2026-07-03 19:00:00,28.672342,77.31526,NH3,6.0,10.0,7.0,"Vivek Vihar, Delhi - DPCC|NH3|2026-07-03 19:00:00"
India,Delhi,Delhi,"Jahangirpuri, Delhi - DPCC",2026-07-03 19:00:00,28.73282,77.170633,NO2,14.0,61.0,33.0,"Jahangirpuri, Delhi - DPCC|NO2|2026-07-03 19:00:00"
India,Delhi,Delhi,"Jahangirpuri, Delhi - DPCC",2026-07-03 19:00:00,28.73282,77.170633,NH3,3.0,8.0,6.0,"Jahangirpuri, Delhi - DPCC|NH3|2026-07-03 19:00:00"
India,Delhi,Delhi,"IHBAS, Dilshad Garden, Delhi - CPCB",2026-07-03 19:00:00,28.6811736,77.3025234,PM10,62.0,110.0,88.0,"IHBAS, Dilshad Garden, Delhi - CPCB|PM10|2026-07-03 19:00:00"
India,Delhi,Delhi,"IHBAS, Dilshad Garden, Delhi - CPCB",2026-07-03 19:00:00,28.6811736,77.3025234,NO2,,,,"IHBAS, Dilshad Garden, Delhi - CPCB|NO2|2026-07-03 19:00:00"
India,Delhi,Delhi,"IHBAS, Dilshad Garden, Delhi - CPCB",2026-07-03 19:00:00,28.6811736,77.3025234,NH3,,,,"IHBAS, Dilshad Garden, Delhi - CPCB|NH3|2026-07-03 19:00:00"
India,Delhi,Delhi,"Sri Aurobindo Marg, Delhi - DPCC",2026-07-03 19:00:00,28.531346,77.190156,CO,37.0,50.0,41.0,"Sri Aurobindo Marg, Delhi - DPCC|CO|2026-07-03 19:00:00"
India,Delhi,Delhi,"Sri Aurobindo Marg, Delhi - DPCC",2026-07-03 19:00:00,28.531346,77.190156,OZONE,13.0,33.0,23.0,"Sri Aurobindo Marg, Delhi - DPCC|OZONE|2026-07-03 19:00:00"
India,Delhi,Delhi,"Najafgarh, Delhi - DPCC",2026-07-03 19:00:00,28.570173,76.933762,PM10,30.0,111.0,72.0,"Najafgarh, Delhi - DPCC|PM10|2026-07-03 19:00:00"
India,Chhattisgarh,Raipur,"Krishak Nagar, Raipur - CECB",2026-07-03 19:00:00,21.237755,81.705301,NO2,,,,"Krishak Nagar, Raipur - CECB|NO2|2026-07-03 19:00:00"
India,Chhattisgarh,Raipur,"Krishak Nagar, Raipur - CECB",2026-07-03 19:00:00,21.237755,81.705301,SO2,1.0,5.0,4.0,"Krishak Nagar, Raipur - CECB|SO2|2026-07-03 19:00:00"
India,Chhattisgarh,Raipur,"Bhatagaon New ISBT, Raipur - CECB",2026-07-03 19:00:00,21.219665,81.630094,SO2,3.0,4.0,3.0,"Bhatagaon New ISBT, Raipur - CECB|SO2|2026-07-03 19:00:00"
India,Chhattisgarh,Tumidih,"OP Jindal Industrial Park, Tumidih - CECB",2026-07-03 19:00:00,22.06631475,83.33820077,CO,22.0,41.0,28.0,"OP Jindal Industrial Park, Tumidih - CECB|CO|2026-07-03 19:00:00"
India,Chhattisgarh,Tumidih,"OP Jindal Industrial Park, Tumidih - CECB",2026-07-03 19:00:00,22.06631475,83.33820077,OZONE,27.0,27.0,27.0,"OP Jindal Industrial Park, Tumidih - CECB|OZONE|2026-07-03 19:00:00"
India,Delhi,Delhi,"Pusa, Delhi - IITM",2026-07-03 19:00:00,28.63611,77.173332,NO2,4.0,41.0,17.0,"Pusa, Delhi - IITM|NO2|2026-07-03 19:00:00"
India,Delhi,Delhi,"IGNOU_Maidan Garhi, Delhi - DPCC",2026-07-03 19:00:00,28.493624,77.201159,NO2,6.0,40.0,13.0,"IGNOU_Maidan Garhi, Delhi - DPCC|NO2|2026-07-03 19:00:00"
India,Delhi,Delhi,"Jawaharlal Nehru Stadium, Delhi - DPCC",2026-07-03 19:00:00,28.58028,77.233829,NH3,11.0,41.0,16.0,"Jawaharlal Nehru Stadium, Delhi - DPCC|NH3|2026-07-03 19:00:00"
India,Delhi,Delhi,"Jawaharlal Nehru Stadium, Delhi - DPCC",2026-07-03 19:00:00,28.58028,77.233829,SO2,2.0,13.0,8.0,"Jawaharlal Nehru Stadium, Delhi - DPCC|SO2|2026-07-03 19:00:00"
India,Delhi,Delhi,"Mandir Marg, Delhi - DPCC",2026-07-03 19:00:00,28.636429,77.201067,OZONE,29.0,42.0,36.0,"Mandir Marg, Delhi - DPCC|OZONE|2026-07-03 19:00:00"
India,Delhi,Delhi,"NSIT Dwarka, Delhi - CPCB",2026-07-03 19:00:00,28.60909,77.0325413,PM2.5,60.0,204.0,104.0,"NSIT Dwarka, Delhi - CPCB|PM2.5|2026-07-03 19:00:00"
India,Delhi,Delhi,"NSIT Dwarka, Delhi - CPCB",2026-07-03 19:00:00,28.60909,77.0325413,PM10,43.0,117.0,74.0,"NSIT Dwarka, Delhi - CPCB|PM10|2026-07-03 19:00:00"
India,Delhi,Delhi,"NSIT Dwarka, Delhi - CPCB",2026-07-03 19:00:00,28.60909,77.0325413,SO2,11.0,22.0,15.0,"NSIT Dwarka, Delhi - CPCB|SO2|2026-07-03 19:00:00"
India,Delhi,Delhi,"Okhla Phase-2, Delhi - DPCC",2026-07-03 19:00:00,28.530785,77.271255,NO2,12.0,41.0,20.0,"Okhla Phase-2, Delhi - DPCC|NO2|2026-07-03 19:00:00"
India,Delhi,Delhi,"Najafgarh, Delhi - DPCC",2026-07-03 19:00:00,28.570173,76.933762,NH3,4.0,11.0,7.0,"Najafgarh, Delhi - DPCC|NH3|2026-07-03 19:00:00"
India,Delhi,Delhi,"Najafgarh, Delhi - DPCC",2026-07-03 19:00:00,28.570173,76.933762,OZONE,11.0,22.0,15.0,"Najafgarh, Delhi - DPCC|OZONE|2026-07-03 19:00:00"
India,Delhi,Delhi,"Wazirpur, Delhi - DPCC",2026-07-03 19:00:00,28.699793,77.165453,OZONE,16.0,22.0,20.0,"Wazirpur, Delhi - DPCC|OZONE|2026-07-03 19:00:00"
India,Delhi,Delhi,"Shadipur, Delhi - CPCB",2026-07-03 19:00:00,28.6514781,77.1473105,NH3,7.0,12.0,9.0,"Shadipur, Delhi - CPCB|NH3|2026-07-03 19:00:00"
India,Delhi,Delhi,"Mundka, Delhi - DPCC",2026-07-03 19:00:00,28.684678,77.076574,PM2.5,47.0,98.0,72.0,"Mundka, Delhi - DPCC|PM2.5|2026-07-03 19:00:00"
India,Delhi,Delhi,"Mundka, Delhi - DPCC",2026-07-03 19:00:00,28.684678,77.076574,PM10,,,,"Mundka, Delhi - DPCC|PM10|2026-07-03 19:00:00"
India,Delhi,Delhi,"JNU, Delhi - DPCC",2026-07-03 19:00:00,28.540721,77.168544,NO2,9.0,43.0,19.0,"JNU, Delhi - DPCC|NO2|2026-07-03 19:00:00"
India,Delhi,Delhi,"JNU, Delhi - DPCC",2026-07-03 19:00:00,28.540721,77.168544,OZONE,,,,"JNU, Delhi - DPCC|OZONE|2026-07-03 19:00:00"
India,Delhi,Delhi,"Alipur, Delhi - DPCC",2026-07-03 19:00:00,28.815329,77.15301,NH3,9.0,10.0,9.0,"Alipur, Delhi - DPCC|NH3|2026-07-03 19:00:00"
India,Delhi,Delhi,"Narela, Delhi - DPCC",2026-07-03 19:00:00,28.822836,77.101981,PM10,75.0,163.0,116.0,"Narela, Delhi - DPCC|PM10|2026-07-03 19:00:00"
India,Delhi,Delhi,"Narela, Delhi - DPCC",2026-07-03 19:00:00,28.822836,77.101981,NO2,14.0,32.0,19.0,"Narela, Delhi - DPCC|NO2|2026-07-03 19:00:00"
India,Chandigarh,Chandigarh,"Sector-25, Chandigarh - CPCC",2026-07-03 19:00:00,30.751462,76.762879,PM10,23.0,54.0,36.0,"Sector-25, Chandigarh - CPCC|PM10|2026-07-03 19:00:00"
India,Chandigarh,Chandigarh,"Sector-25, Chandigarh - CPCC",2026-07-03 19:00:00,30.751462,76.762879,CO,13.0,25.0,15.0,"Sector-25, Chandigarh - CPCC|CO|2026-07-03 19:00:00"
India,Chhattisgarh,Bilaspur,"Mangala, Bilaspur - NTPC",2026-07-03 19:00:00,22.08815,82.13737,NO2,,,,"Mangala, Bilaspur - NTPC|NO2|2026-07-03 19:00:00"
India,Chhattisgarh,Bilaspur,"Mangala, Bilaspur - NTPC",2026-07-03 19:00:00,22.08815,82.13737,SO2,3.0,14.0,10.0,"Mangala, Bilaspur - NTPC|SO2|2026-07-03 19:00:00"
India,Chhattisgarh,Chhal,"Nawapara SECL Colony, Chhal - CECB",2026-07-03 19:00:00,22.118125,83.140608,NO2,,,,"Nawapara SECL Colony, Chhal - CECB|NO2|2026-07-03 19:00:00"
India,Chhattisgarh,Korba,"Rampur, Korba - CECB",2026-07-03 19:00:00,22.368195,82.746431,CO,8.0,15.0,11.0,"Rampur, Korba - CECB|CO|2026-07-03 19:00:00"
India,Chhattisgarh,Korba,"Urja Nagar, Korba - CECB",2026-07-03 19:00:00,22.348441,82.549611,PM10,6.0,18.0,11.0,"Urja Nagar, Korba - CECB|PM10|2026-07-03 19:00:00"
India,Chhattisgarh,Korba,"Urja Nagar, Korba - CECB",2026-07-03 19:00:00,22.348441,82.549611,NO2,6.0,11.0,8.0,"Urja Nagar, Korba - CECB|NO2|2026-07-03 19:00:00"
India,Chhattisgarh,Korba,"Urja Nagar, Korba - CECB",2026-07-03 19:00:00,22.348441,82.549611,SO2,6.0,16.0,11.0,"Urja Nagar, Korba - CECB|SO2|2026-07-03 19:00:00"
India,Delhi,Delhi,"Sonia Vihar, Delhi - DPCC",2026-07-03 19:00:00,28.710508,77.249485,CO,36.0,49.0,44.0,"Sonia Vihar, Delhi - DPCC|CO|2026-07-03 19:00:00"
India,Delhi,Delhi,"Nehru Nagar, Delhi - DPCC",2026-07-03 19:00:00,28.56789,77.250515,PM10,85.0,166.0,113.0,"Nehru Nagar, Delhi - DPCC|PM10|2026-07-03 19:00:00"
India,Delhi,Delhi,"Nehru Nagar, Delhi - DPCC",2026-07-03 19:00:00,28.56789,77.250515,NO2,22.0,59.0,39.0,"Nehru Nagar, Delhi - DPCC|NO2|2026-07-03 19:00:00"
India,Delhi,Delhi,"Nehru Nagar, Delhi - DPCC",2026-07-03 19:00:00,28.56789,77.250515,CO,14.0,119.0,58.0,"Nehru Nagar, Delhi - DPCC|CO|2026-07-03 19:00:00"
India,Delhi,Delhi,"Pusa, Delhi - DPCC",2026-07-03 19:00:00,28.639652,77.146275,NO2,18.0,97.0,53.0,"Pusa, Delhi - DPCC|NO2|2026-07-03 19:00:00"
India,Delhi,Delhi,"Pusa, Delhi - DPCC",2026-07-03 19:00:00,28.639652,77.146275,SO2,6.0,14.0,9.0,"Pusa, Delhi - DPCC|SO2|2026-07-03 19:00:00"
India,Delhi,Delhi,"Patparganj, Delhi - DPCC",2026-07-03 19:00:00,28.623763,77.287209,NO2,9.0,24.0,16.0,"Patparganj, Delhi - DPCC|NO2|2026-07-03 19:00:00"
India,Delhi,Delhi,"NSUT Jaffarpur, Delhi - DPCC",2026-07-03 19:00:00,28.594004,76.909423,OZONE,74.0,93.0,84.0,"NSUT Jaffarpur, Delhi - DPCC|OZONE|2026-07-03 19:00:00"
India,Delhi,Delhi,"Bawana, Delhi - DPCC",2026-07-03 19:00:00,28.7762,77.051074,OZONE,5.0,11.0,8.0,"Bawana, Delhi - DPCC|OZONE|2026-07-03 19:00:00"
India,Delhi,Delhi,"Major Dhyan Chand National Stadium, Delhi - DPCC",2026-07-03 19:00:00,28.611281,77.237738,NH3,6.0,14.0,9.0,"Major Dhyan Chand National Stadium, Delhi - DPCC|NH3|2026-07-03 19:00:00"
India,Delhi,Delhi,"Sonia Vihar, Delhi - DPCC",2026-07-03 19:00:00,28.710508,77.249485,PM2.5,48.0,167.0,102.0,"Sonia Vihar, Delhi - DPCC|PM2.5|2026-07-03 19:00:00"
India,Chhattisgarh,Milupara,"Govt. Higher Secondary School, Milupara - CECB",2026-07-03 19:00:00,22.1910172,83.5197009,SO2,10.0,14.0,13.0,"Govt. Higher Secondary School, Milupara - CECB|SO2|2026-07-03 19:00:00"
India,Delhi,Delhi,"NSUT Jaffarpur, Delhi - DPCC",2026-07-03 19:00:00,28.594004,76.909423,PM10,55.0,111.0,82.0,"NSUT Jaffarpur, Delhi - DPCC|PM10|2026-07-03 19:00:00"
India,Delhi,Delhi,"Aya Nagar, Delhi - IITM",2026-07-03 19:00:00,28.4706914,77.1099364,CO,36.0,38.0,37.0,"Aya Nagar, Delhi - IITM|CO|2026-07-03 19:00:00"
India,Delhi,Delhi,"North Campus, DU, Delhi - IITM",2026-07-03 19:00:00,28.6573814,77.1585447,PM2.5,36.0,123.0,75.0,"North Campus, DU, Delhi - IITM|PM2.5|2026-07-03 19:00:00"
India,Delhi,Delhi,"North Campus, DU, Delhi - IITM",2026-07-03 19:00:00,28.6573814,77.1585447,NO2,6.0,66.0,31.0,"North Campus, DU, Delhi - IITM|NO2|2026-07-03 19:00:00"
India,Delhi,Delhi,"CRRI Mathura Road, Delhi - IITM",2026-07-03 19:00:00,28.5512005,77.2735737,PM2.5,40.0,109.0,71.0,"CRRI Mathura Road, Delhi - IITM|PM2.5|2026-07-03 19:00:00"
India,Delhi,Delhi,"IMD Lodhi Road, Delhi - IITM",2026-07-03 19:00:00,28.5918245,77.2273074,PM2.5,25.0,101.0,75.0,"IMD Lodhi Road, Delhi - IITM|PM2.5|2026-07-03 19:00:00"
India,Delhi,Delhi,"IMD Lodhi Road, Delhi - IITM",2026-07-03 19:00:00,28.5918245,77.2273074,NH3,,,,"IMD Lodhi Road, Delhi - IITM|NH3|2026-07-03 19:00:00"
India,Gujarat,Ahmedabad,"Raikhad, Ahmedabad - IITM",2026-07-03 19:00:00,23.020509,72.579261,SO2,2.0,6.0,4.0,"Raikhad, Ahmedabad - IITM|SO2|2026-07-03 19:00:00"
India,Gujarat,Ahmedabad,"Chandkheda, Ahmedabad - IITM",2026-07-03 19:00:00,23.107969,72.574648,PM2.5,21.0,101.0,48.0,"Chandkheda, Ahmedabad - IITM|PM2.5|2026-07-03 19:00:00"
India,Gujarat,Ahmedabad,"Chandkheda, Ahmedabad - IITM",2026-07-03 19:00:00,23.107969,72.574648,NO2,13.0,63.0,22.0,"Chandkheda, Ahmedabad - IITM|NO2|2026-07-03 19:00:00"
India,Gujarat,Ahmedabad,"SAC ISRO Satellite, Ahmedabad - IITM",2026-07-03 19:00:00,23.023389,72.515201,NO2,23.0,61.0,43.0,"SAC ISRO Satellite, Ahmedabad - IITM|NO2|2026-07-03 19:00:00"
India,Gujarat,Ahmedabad,"SAC ISRO Satellite, Ahmedabad - IITM",2026-07-03 19:00:00,23.023389,72.515201,OZONE,31.0,69.0,46.0,"SAC ISRO Satellite, Ahmedabad - IITM|OZONE|2026-07-03 19:00:00"
India,Gujarat,Ahmedabad,"Maninagar, Ahmedabad - GPCB",2026-07-03 19:00:00,23.002657,72.591912,PM10,56.0,115.0,85.0,"Maninagar, Ahmedabad - GPCB|PM10|2026-07-03 19:00:00"
India,Gujarat,Ahmedabad,"Maninagar, Ahmedabad - GPCB",2026-07-03 19:00:00,23.002657,72.591912,NO2,33.0,35.0,34.0,"Maninagar, Ahmedabad - GPCB|NO2|2026-07-03 19:00:00"
India,Gujarat,Ahmedabad,"Maninagar, Ahmedabad - GPCB",2026-07-03 19:00:00,23.002657,72.591912,NH3,,,,"Maninagar, Ahmedabad - GPCB|NH3|2026-07-03 19:00:00"
India,Haryana,Gurugram,"NISE Gwal Pahari, Gurugram - IITM",2026-07-03 19:00:00,28.422681,77.148944,NO2,6.0,122.0,12.0,"NISE Gwal Pahari, Gurugram - IITM|NO2|2026-07-03 19:00:00"
India,Haryana,Gurugram,"NISE Gwal Pahari, Gurugram - IITM",2026-07-03 19:00:00,28.422681,77.148944,NH3,,,,"NISE Gwal Pahari, Gurugram - IITM|NH3|2026-07-03 19:00:00"
India,Haryana,Gurugram,"NISE Gwal Pahari, Gurugram - IITM",2026-07-03 19:00:00,28.422681,77.148944,SO2,,,,"NISE Gwal Pahari, Gurugram - IITM|SO2|2026-07-03 19:00:00"
India,Haryana,Gurugram,"NISE Gwal Pahari, Gurugram - IITM",2026-07-03 19:00:00,28.422681,77.148944,OZONE,39.0,66.0,55.0,"NISE Gwal Pahari, Gurugram - IITM|OZONE|2026-07-03 19:00:00"
India,Haryana,Gurugram,"Vikas Sadan, Gurugram - HSPCB",2026-07-03 19:00:00,28.4501238,77.0263051,OZONE,18.0,54.0,43.0,"Vikas Sadan, Gurugram - HSPCB|OZONE|2026-07-03 19:00:00"
India,Haryana,Gurugram,"Sector-51, Gurugram - HSPCB",2026-07-03 19:00:00,28.4227,77.0667,NO2,21.0,59.0,35.0,"Sector-51, Gurugram - HSPCB|NO2|2026-07-03 19:00:00"
India,Haryana,Gurugram,"Sector-51, Gurugram - HSPCB",2026-07-03 19:00:00,28.4227,77.0667,SO2,10.0,17.0,13.0,"Sector-51, Gurugram - HSPCB|SO2|2026-07-03 19:00:00"
India,Haryana,Gurugram,"Sector-51, Gurugram - HSPCB",2026-07-03 19:00:00,28.4227,77.0667,OZONE,18.0,56.0,37.0,"Sector-51, Gurugram - HSPCB|OZONE|2026-07-03 19:00:00"
India,Haryana,Hisar,"Urban Estate-II, Hisar - HSPCB",2026-07-03 19:00:00,29.14056,75.744941,PM10,38.0,73.0,41.0,"Urban Estate-II, Hisar - HSPCB|PM10|2026-07-03 19:00:00"
India,Haryana,Hisar,"Urban Estate-II, Hisar - HSPCB",2026-07-03 19:00:00,29.14056,75.744941,CO,46.0,46.0,46.0,"Urban Estate-II, Hisar - HSPCB|CO|2026-07-03 19:00:00"
India,Haryana,Jind,"Police Lines, Jind - HSPCB",2026-07-03 19:00:00,29.307814,76.337619,PM2.5,,,,"Police Lines, Jind - HSPCB|PM2.5|2026-07-03 19:00:00"
India,Haryana,Jind,"Police Lines, Jind - HSPCB",2026-07-03 19:00:00,29.307814,76.337619,CO,3.0,89.0,29.0,"Police Lines, Jind - HSPCB|CO|2026-07-03 19:00:00"
India,Haryana,Karnal,"Sector-12, Karnal - HSPCB",2026-07-03 19:00:00,29.6953,77.0027,NO2,,,,"Sector-12, Karnal - HSPCB|NO2|2026-07-03 19:00:00"
India,Gujarat,Nandesari,"GIDC, Nandesari - Nandesari Ind. Association",2026-07-03 19:00:00,22.410802,73.097923,SO2,3.0,3.0,3.0,"GIDC, Nandesari - Nandesari Ind. Association|SO2|2026-07-03 19:00:00"
India,Gujarat,Rajkot,"Mavdi, Rajkot - Nexteng Enviro",2026-07-03 19:00:00,22.248853,70.776774,PM2.5,51.0,97.0,78.0,"Mavdi, Rajkot - Nexteng Enviro|PM2.5|2026-07-03 19:00:00"
India,Gujarat,Surat,"Science Center, Surat - SMC",2026-07-03 19:00:00,21.170046,72.795405,NO2,2.0,4.0,3.0,"Science Center, Surat - SMC|NO2|2026-07-03 19:00:00"
India,Gujarat,Surat,"Science Center, Surat - SMC",2026-07-03 19:00:00,21.170046,72.795405,OZONE,,,,"Science Center, Surat - SMC|OZONE|2026-07-03 19:00:00"
India,Gujarat,Surat,"Katargam, Surat - Nexteng Enviro",2026-07-03 19:00:00,21.217779,72.834787,NH3,2.0,3.0,2.0,"Katargam, Surat - Nexteng Enviro|NH3|2026-07-03 19:00:00"
India,Gujarat,Surat,"Katargam, Surat - Nexteng Enviro",2026-07-03 19:00:00,21.217779,72.834787,CO,38.0,43.0,41.0,"Katargam, Surat - Nexteng Enviro|CO|2026-07-03 19:00:00"
India,Gujarat,Vapi,"Phase-1 GIDC, Vapi - GPCB",2026-07-03 19:00:00,20.362421,72.918013,PM10,19.0,64.0,37.0,"Phase-1 GIDC, Vapi - GPCB|PM10|2026-07-03 19:00:00"
India,Gujarat,Vapi,"Phase-1 GIDC, Vapi - GPCB",2026-07-03 19:00:00,20.362421,72.918013,OZONE,5.0,6.0,6.0,"Phase-1 GIDC, Vapi - GPCB|OZONE|2026-07-03 19:00:00"
India,Gujarat,Vatva,"Phase-4 GIDC, Vatva - GPCB",2026-07-03 19:00:00,22.969611,72.6435,CO,17.0,23.0,20.0,"Phase-4 GIDC, Vatva - GPCB|CO|2026-07-03 19:00:00"
India,Haryana,Ambala,"Patti Mehar, Ambala - HSPCB",2026-07-03 19:00:00,30.379589,76.778328,PM10,63.0,123.0,88.0,"Patti Mehar, Ambala - HSPCB|PM10|2026-07-03 19:00:00"
India,Haryana,Bahadurgarh,"Arya Nagar, Bahadurgarh - HSPCB",2026-07-03 19:00:00,28.6701,76.9254,PM10,70.0,157.0,101.0,"Arya Nagar, Bahadurgarh - HSPCB|PM10|2026-07-03 19:00:00"
India,Haryana,Bahadurgarh,"Arya Nagar, Bahadurgarh - HSPCB",2026-07-03 19:00:00,28.6701,76.9254,SO2,6.0,7.0,6.0,"Arya Nagar, Bahadurgarh - HSPCB|SO2|2026-07-03 19:00:00"
India,Haryana,Ballabgarh,"Nathu Colony, Ballabgarh - HSPCB",2026-07-03 19:00:00,28.3419248,77.319699,PM10,22.0,423.0,183.0,"Nathu Colony, Ballabgarh - HSPCB|PM10|2026-07-03 19:00:00"
India,Haryana,Ballabgarh,"Nathu Colony, Ballabgarh - HSPCB",2026-07-03 19:00:00,28.3419248,77.319699,CO,45.0,74.0,59.0,"Nathu Colony, Ballabgarh - HSPCB|CO|2026-07-03 19:00:00"
India,Haryana,Ballabgarh,"Nathu Colony, Ballabgarh - HSPCB",2026-07-03 19:00:00,28.3419248,77.319699,OZONE,17.0,48.0,27.0,"Nathu Colony, Ballabgarh - HSPCB|OZONE|2026-07-03 19:00:00"
India,Haryana,Bhiwani,"H.B. Colony, Bhiwani - HSPCB",2026-07-03 19:00:00,28.806223,76.141105,SO2,12.0,13.0,13.0,"H.B. Colony, Bhiwani - HSPCB|SO2|2026-07-03 19:00:00"
India,Haryana,Charkhi Dadri,"Mini Secretariat, Charkhi Dadri - HSPCB",2026-07-03 19:00:00,28.593883,76.270653,PM10,11.0,344.0,108.0,"Mini Secretariat, Charkhi Dadri - HSPCB|PM10|2026-07-03 19:00:00"
India,Haryana,Faridabad,"Sector 30, Faridabad - HSPCB",2026-07-03 19:00:00,28.4417,77.3217,OZONE,72.0,115.0,86.0,"Sector 30, Faridabad - HSPCB|OZONE|2026-07-03 19:00:00"
India,Haryana,Faridabad,"New Industrial Town, Faridabad - HSPCB",2026-07-03 19:00:00,28.39072,77.30059,NO2,24.0,27.0,25.0,"New Industrial Town, Faridabad - HSPCB|NO2|2026-07-03 19:00:00"
India,Haryana,Faridabad,"New Industrial Town, Faridabad - HSPCB",2026-07-03 19:00:00,28.39072,77.30059,SO2,5.0,17.0,10.0,"New Industrial Town, Faridabad - HSPCB|SO2|2026-07-03 19:00:00"
India,Haryana,Panchgaon,"Amity University, Panchgaon - IITM",2026-07-03 19:00:00,28.3153,76.9143,NO2,4.0,35.0,23.0,"Amity University, Panchgaon - IITM|NO2|2026-07-03 19:00:00"
India,Haryana,Panchkula,"Sector-6, Panchkula - HSPCB",2026-07-03 19:00:00,30.7057778,76.8531805555555,PM10,,,,"Sector-6, Panchkula - HSPCB|PM10|2026-07-03 19:00:00"
India,Haryana,Panchkula,"Sector-6, Panchkula - HSPCB",2026-07-03 19:00:00,30.7057778,76.8531805555555,SO2,9.0,13.0,11.0,"Sector-6, Panchkula - HSPCB|SO2|2026-07-03 19:00:00"
India,Jammu and Kashmir,Srinagar,"Khunmoh, Srinagar - JKPCC",2026-07-03 19:00:00,34.06313,74.96017,SO2,4.0,6.0,5.0,"Khunmoh, Srinagar - JKPCC|SO2|2026-07-03 19:00:00"
India,Jharkhand,Jorapokhar,"Tata Stadium, Jorapokhar - JSPCB",2026-07-03 19:00:00,23.707909,86.41467,PM2.5,42.0,74.0,48.0,"Tata Stadium, Jorapokhar - JSPCB|PM2.5|2026-07-03 19:00:00"
India,Jharkhand,Jorapokhar,"Tata Stadium, Jorapokhar - JSPCB",2026-07-03 19:00:00,23.707909,86.41467,NO2,8.0,8.0,8.0,"Tata Stadium, Jorapokhar - JSPCB|NO2|2026-07-03 19:00:00"
India,Madhya Pradesh,Sagar,"Civil Lines, Sagar - MPPCB",2026-07-03 19:00:00,23.838586,78.759431,NH3,6.0,6.0,6.0,"Civil Lines, Sagar - MPPCB|NH3|2026-07-03 19:00:00"
India,Madhya Pradesh,Sagar,"Civil Lines, Sagar - MPPCB",2026-07-03 19:00:00,23.838586,78.759431,SO2,,,,"Civil Lines, Sagar - MPPCB|SO2|2026-07-03 19:00:00"
India,Madhya Pradesh,Satna,"Bandhavgar Colony, Satna - Birla Cement",2026-07-03 19:00:00,24.58434363,80.8549414,PM2.5,49.0,52.0,50.0,"Bandhavgar Colony, Satna - Birla Cement|PM2.5|2026-07-03 19:00:00"
India,Madhya Pradesh,Satna,"Bandhavgar Colony, Satna - Birla Cement",2026-07-03 19:00:00,24.58434363,80.8549414,NH3,,,,"Bandhavgar Colony, Satna - Birla Cement|NH3|2026-07-03 19:00:00"
India,Madhya Pradesh,Singrauli,"Suryakiran Bhawan NCL, Singrauli - MPPCB",2026-07-03 19:00:00,24.10897,82.64558,PM2.5,14.0,384.0,42.0,"Suryakiran Bhawan NCL, Singrauli - MPPCB|PM2.5|2026-07-03 19:00:00"
India,Madhya Pradesh,Singrauli,"Suryakiran Bhawan NCL, Singrauli - MPPCB",2026-07-03 19:00:00,24.10897,82.64558,PM10,51.0,137.0,89.0,"Suryakiran Bhawan NCL, Singrauli - MPPCB|PM10|2026-07-03 19:00:00"
India,Madhya Pradesh,Singrauli,"Suryakiran Bhawan NCL, Singrauli - MPPCB",2026-07-03 19:00:00,24.10897,82.64558,NO2,50.0,66.0,59.0,"Suryakiran Bhawan NCL, Singrauli - MPPCB|NO2|2026-07-03 19:00:00"
India,Maharashtra,Ahmednagar,"Tarakpur, Ahmednagar - MPCB",2026-07-03 19:00:00,19.10122,74.73339,PM2.5,8.0,55.0,21.0,"Tarakpur, Ahmednagar - MPCB|PM2.5|2026-07-03 19:00:00"
India,Maharashtra,Ahmednagar,"Tarakpur, Ahmednagar - MPCB",2026-07-03 19:00:00,19.10122,74.73339,CO,11.0,20.0,16.0,"Tarakpur, Ahmednagar - MPCB|CO|2026-07-03 19:00:00"
India,Maharashtra,Ahmednagar,"Tarakpur, Ahmednagar - MPCB",2026-07-03 19:00:00,19.10122,74.73339,OZONE,29.0,40.0,34.0,"Tarakpur, Ahmednagar - MPCB|OZONE|2026-07-03 19:00:00"
India,Maharashtra,Akola,"Ramdaspeth, Akola - MPCB",2026-07-03 19:00:00,20.719516,77.000253,NO2,4.0,14.0,8.0,"Ramdaspeth, Akola - MPCB|NO2|2026-07-03 19:00:00"
India,Maharashtra,Akola,"Ramdaspeth, Akola - MPCB",2026-07-03 19:00:00,20.719516,77.000253,NH3,6.0,9.0,7.0,"Ramdaspeth, Akola - MPCB|NH3|2026-07-03 19:00:00"
India,Maharashtra,Akola,"Ramdaspeth, Akola - MPCB",2026-07-03 19:00:00,20.719516,77.000253,CO,24.0,28.0,25.0,"Ramdaspeth, Akola - MPCB|CO|2026-07-03 19:00:00"
India,Maharashtra,Ambernath,"Chinchpada, Ambernath - MPCB",2026-07-03 19:00:00,19.215784,73.199781,PM10,,,,"Chinchpada, Ambernath - MPCB|PM10|2026-07-03 19:00:00"
India,Maharashtra,Amravati,"Shri Shivaji Science College, Amravati - MPCB",2026-07-03 19:00:00,20.939198,77.765701,PM10,8.0,28.0,17.0,"Shri Shivaji Science College, Amravati - MPCB|PM10|2026-07-03 19:00:00"
India,Maharashtra,Amravati,"Shri Shivaji Science College, Amravati - MPCB",2026-07-03 19:00:00,20.939198,77.765701,NH3,3.0,3.0,3.0,"Shri Shivaji Science College, Amravati - MPCB|NH3|2026-07-03 19:00:00"
India,Madhya Pradesh,Jabalpur,"Marhatal, Jabalpur - MPPCB",2026-07-03 19:00:00,23.168606,79.932247,PM2.5,10.0,36.0,22.0,"Marhatal, Jabalpur - MPPCB|PM2.5|2026-07-03 19:00:00"
India,Madhya Pradesh,Jabalpur,"Marhatal, Jabalpur - MPPCB",2026-07-03 19:00:00,23.168606,79.932247,PM10,11.0,44.0,27.0,"Marhatal, Jabalpur - MPPCB|PM10|2026-07-03 19:00:00"
India,Madhya Pradesh,Jabalpur,"Marhatal, Jabalpur - MPPCB",2026-07-03 19:00:00,23.168606,79.932247,OZONE,32.0,59.0,46.0,"Marhatal, Jabalpur - MPPCB|OZONE|2026-07-03 19:00:00"
India,Madhya Pradesh,Jabalpur,"Govindh Bhavan Colony, Jabalpur - JMC",2026-07-03 19:00:00,23.163174,79.973061,CO,12.0,22.0,16.0,"Govindh Bhavan Colony, Jabalpur - JMC|CO|2026-07-03 19:00:00"
India,Madhya Pradesh,Jabalpur,"Gupteshwar, Jabalpur - JMC",2026-07-03 19:00:00,23.142888,79.916147,CO,24.0,37.0,33.0,"Gupteshwar, Jabalpur - JMC|CO|2026-07-03 19:00:00"
India,Madhya Pradesh,Jabalpur,"Gupteshwar, Jabalpur - JMC",2026-07-03 19:00:00,23.142888,79.916147,OZONE,2.0,4.0,3.0,"Gupteshwar, Jabalpur - JMC|OZONE|2026-07-03 19:00:00"
India,Madhya Pradesh,Katni,"Gole Bazar, Katni - MPPCB",2026-07-03 19:00:00,23.50016,80.23284,SO2,8.0,40.0,22.0,"Gole Bazar, Katni - MPPCB|SO2|2026-07-03 19:00:00"
India,Madhya Pradesh,Katni,"Gole Bazar, Katni - MPPCB",2026-07-03 19:00:00,23.50016,80.23284,OZONE,16.0,27.0,22.0,"Gole Bazar, Katni - MPPCB|OZONE|2026-07-03 19:00:00"
India,Madhya Pradesh,Mandideep,"Sector-D Industrial Area, Mandideep - MPPCB",2026-07-03 19:00:00,23.10844,77.511428,PM2.5,5.0,68.0,20.0,"Sector-D Industrial Area, Mandideep - MPPCB|PM2.5|2026-07-03 19:00:00"
India,Madhya Pradesh,Mandideep,"Sector-D Industrial Area, Mandideep - MPPCB",2026-07-03 19:00:00,23.10844,77.511428,SO2,1.0,23.0,8.0,"Sector-D Industrial Area, Mandideep - MPPCB|SO2|2026-07-03 19:00:00"
India,Madhya Pradesh,Pithampur,"Sector-2 Industrial Area, Pithampur - MPPCB",2026-07-03 19:00:00,22.624758,75.675238,CO,20.0,33.0,26.0,"Sector-2 Industrial Area, Pithampur - MPPCB|CO|2026-07-03 19:00:00"
India,Madhya Pradesh,Ratlam,"Shasthri Nagar, Ratlam - IPCA Lab",2026-07-03 19:00:00,23.331731,75.045981,SO2,18.0,24.0,22.0,"Shasthri Nagar, Ratlam - IPCA Lab|SO2|2026-07-03 19:00:00"
India,Maharashtra,Boisar,"Khaira, Boisar - MPCB",2026-07-03 19:00:00,19.786089,72.757971,PM10,26.0,52.0,35.0,"Khaira, Boisar - MPCB|PM10|2026-07-03 19:00:00"
India,Maharashtra,Boisar,"Khaira, Boisar - MPCB",2026-07-03 19:00:00,19.786089,72.757971,NH3,1.0,8.0,5.0,"Khaira, Boisar - MPCB|NH3|2026-07-03 19:00:00"
India,Maharashtra,Boisar,"Khaira, Boisar - MPCB",2026-07-03 19:00:00,19.786089,72.757971,CO,7.0,36.0,16.0,"Khaira, Boisar - MPCB|CO|2026-07-03 19:00:00"
India,Maharashtra,Boisar,"Khaira, Boisar - MPCB",2026-07-03 19:00:00,19.786089,72.757971,OZONE,2.0,33.0,15.0,"Khaira, Boisar - MPCB|OZONE|2026-07-03 19:00:00"
India,Maharashtra,Chandrapur,"Chauhan Colony, Chandrapur - MPCB",2026-07-03 19:00:00,19.9629,79.298714,CO,24.0,27.0,26.0,"Chauhan Colony, Chandrapur - MPCB|CO|2026-07-03 19:00:00"
India,Maharashtra,Dombivli,"Kalu Nagar, Dombivli - MPCB",2026-07-03 19:00:00,19.2268427,73.0788456,NH3,1.0,2.0,1.0,"Kalu Nagar, Dombivli - MPCB|NH3|2026-07-03 19:00:00"
India,Maharashtra,Hingoli,"Ashta Vinayak Nagar, Hingoli - MPCB",2026-07-03 19:00:00,19.710842,77.151824,CO,12.0,20.0,16.0,"Ashta Vinayak Nagar, Hingoli - MPCB|CO|2026-07-03 19:00:00"
India,Maharashtra,Jalgaon,"Prabhat Colony, Jalgaon - MPCB",2026-07-03 19:00:00,21.001264,75.565602,PM10,7.0,50.0,22.0,"Prabhat Colony, Jalgaon - MPCB|PM10|2026-07-03 19:00:00"
India,Maharashtra,Jalgaon,"Prabhat Colony, Jalgaon - MPCB",2026-07-03 19:00:00,21.001264,75.565602,NO2,5.0,33.0,12.0,"Prabhat Colony, Jalgaon - MPCB|NO2|2026-07-03 19:00:00"
India,Maharashtra,Jalna,"Old MIDC, Jalna - MPCB",2026-07-03 19:00:00,19.854616,75.905894,PM2.5,28.0,62.0,41.0,"Old MIDC, Jalna - MPCB|PM2.5|2026-07-03 19:00:00"
India,Maharashtra,Jalna,"Old MIDC, Jalna - MPCB",2026-07-03 19:00:00,19.854616,75.905894,NO2,11.0,21.0,17.0,"Old MIDC, Jalna - MPCB|NO2|2026-07-03 19:00:00"
India,Maharashtra,Jalna,"Old MIDC, Jalna - MPCB",2026-07-03 19:00:00,19.854616,75.905894,NH3,3.0,5.0,4.0,"Old MIDC, Jalna - MPCB|NH3|2026-07-03 19:00:00"
India,Maharashtra,Kalyan,"Pimpleshwar Mandir, Kalyan - MPCB",2026-07-03 19:00:00,19.192056,72.9585188,PM10,38.0,57.0,47.0,"Pimpleshwar Mandir, Kalyan - MPCB|PM10|2026-07-03 19:00:00"
India,Maharashtra,Kalyan,"Pimpleshwar Mandir, Kalyan - MPCB",2026-07-03 19:00:00,19.192056,72.9585188,NO2,11.0,22.0,13.0,"Pimpleshwar Mandir, Kalyan - MPCB|NO2|2026-07-03 19:00:00"
India,Maharashtra,Kalyan,"Pimpleshwar Mandir, Kalyan - MPCB",2026-07-03 19:00:00,19.192056,72.9585188,NH3,3.0,8.0,4.0,"Pimpleshwar Mandir, Kalyan - MPCB|NH3|2026-07-03 19:00:00"
India,Maharashtra,Kolhapur,"Sinchan Bhavan, Kolhapur - MPCB",2026-07-03 19:00:00,16.7143745,74.2426398,PM2.5,9.0,24.0,13.0,"Sinchan Bhavan, Kolhapur - MPCB|PM2.5|2026-07-03 19:00:00"
India,Maharashtra,Kolhapur,"Sinchan Bhavan, Kolhapur - MPCB",2026-07-03 19:00:00,16.7143745,74.2426398,PM10,13.0,25.0,19.0,"Sinchan Bhavan, Kolhapur - MPCB|PM10|2026-07-03 19:00:00"
India,Maharashtra,Kolhapur,"Sinchan Bhavan, Kolhapur - MPCB",2026-07-03 19:00:00,16.7143745,74.2426398,NH3,2.0,3.0,2.0,"Sinchan Bhavan, Kolhapur - MPCB|NH3|2026-07-03 19:00:00"
India,Maharashtra,Kolhapur,"Sinchan Bhavan, Kolhapur - MPCB",2026-07-03 19:00:00,16.7143745,74.2426398,SO2,0.0,1.0,0.0,"Sinchan Bhavan, Kolhapur - MPCB|SO2|2026-07-03 19:00:00"
India,Maharashtra,Kolhapur,"Sinchan Bhavan, Kolhapur - MPCB",2026-07-03 19:00:00,16.7143745,74.2426398,CO,7.0,18.0,11.0,"Sinchan Bhavan, Kolhapur - MPCB|CO|2026-07-03 19:00:00"
India,Maharashtra,Kolhapur,"Shivaji University, Kolhapur - MPCB",2026-07-03 19:00:00,16.6870449,74.2505872,SO2,0.0,5.0,3.0,"Shivaji University, Kolhapur - MPCB|SO2|2026-07-03 19:00:00"
India,Maharashtra,Latur,"Sawe Wadi, Latur - MPCB",2026-07-03 19:00:00,18.39963,76.57452,NO2,5.0,20.0,11.0,"Sawe Wadi, Latur - MPCB|NO2|2026-07-03 19:00:00"
India,Maharashtra,Latur,"Sawe Wadi, Latur - MPCB",2026-07-03 19:00:00,18.39963,76.57452,CO,8.0,20.0,12.0,"Sawe Wadi, Latur - MPCB|CO|2026-07-03 19:00:00"
India,Maharashtra,Mahad,"Kamble Tarf Birwadi, Mahad - MPCB",2026-07-03 19:00:00,18.1023399,73.4783687,CO,39.0,42.0,40.0,"Kamble Tarf Birwadi, Mahad - MPCB|CO|2026-07-03 19:00:00"
India,Maharashtra,Amravati,"Shivneri Colony, Amravati - MPCB",2026-07-03 19:00:00,20.9402359,77.7895248,NO2,3.0,12.0,7.0,"Shivneri Colony, Amravati - MPCB|NO2|2026-07-03 19:00:00"
India,Maharashtra,Aurangabad,"MIDC Chilkalthana, Aurangabad - MPCB",2026-07-03 19:00:00,19.87562,75.38731,NO2,7.0,35.0,14.0,"MIDC Chilkalthana, Aurangabad - MPCB|NO2|2026-07-03 19:00:00"
India,Maharashtra,Aurangabad,"MIDC Chilkalthana, Aurangabad - MPCB",2026-07-03 19:00:00,19.87562,75.38731,CO,23.0,28.0,26.0,"MIDC Chilkalthana, Aurangabad - MPCB|CO|2026-07-03 19:00:00"
India,Maharashtra,Badlapur,"Katrap, Badlapur - MPCB",2026-07-03 19:00:00,19.16485,73.23409,SO2,2.0,7.0,4.0,"Katrap, Badlapur - MPCB|SO2|2026-07-03 19:00:00"
India,Maharashtra,Beed,"Bir, Beed - MPCB",2026-07-03 19:00:00,18.988474,75.753873,CO,20.0,34.0,25.0,"Bir, Beed - MPCB|CO|2026-07-03 19:00:00"
India,Maharashtra,Belapur,"CBD Belapur, Belapur - MPCB",2026-07-03 19:00:00,19.0243902,73.0406721,PM2.5,8.0,25.0,14.0,"CBD Belapur, Belapur - MPCB|PM2.5|2026-07-03 19:00:00"
India,Maharashtra,Belapur,"CBD Belapur, Belapur - MPCB",2026-07-03 19:00:00,19.0243902,73.0406721,NH3,1.0,5.0,2.0,"CBD Belapur, Belapur - MPCB|NH3|2026-07-03 19:00:00"
India,Maharashtra,Belapur,"CBD Belapur, Belapur - MPCB",2026-07-03 19:00:00,19.0243902,73.0406721,CO,14.0,16.0,15.0,"CBD Belapur, Belapur - MPCB|CO|2026-07-03 19:00:00"
India,Maharashtra,Bhiwandi,"Gokul Nagar, Bhiwandi - MPCB",2026-07-03 19:00:00,19.309073,73.057223,NO2,10.0,27.0,20.0,"Gokul Nagar, Bhiwandi - MPCB|NO2|2026-07-03 19:00:00"
India,Maharashtra,Mumbai,"Bandra Kurla Complex, Mumbai - MPCB",2026-07-03 19:00:00,19.065931,72.862131,PM2.5,13.0,29.0,18.0,"Bandra Kurla Complex, Mumbai - MPCB|PM2.5|2026-07-03 19:00:00"
India,Maharashtra,Mumbai,"Bandra Kurla Complex, Mumbai - MPCB",2026-07-03 19:00:00,19.065931,72.862131,SO2,2.0,4.0,3.0,"Bandra Kurla Complex, Mumbai - MPCB|SO2|2026-07-03 19:00:00"
India,Maharashtra,Mumbai,"Siddharth Nagar-Worli, Mumbai - IITM",2026-07-03 19:00:00,19.000083,72.813993,NH3,,,,"Siddharth Nagar-Worli, Mumbai - IITM|NH3|2026-07-03 19:00:00"
India,Maharashtra,Mumbai,"Siddharth Nagar-Worli, Mumbai - IITM",2026-07-03 19:00:00,19.000083,72.813993,OZONE,4.0,31.0,14.0,"Siddharth Nagar-Worli, Mumbai - IITM|OZONE|2026-07-03 19:00:00"
India,Maharashtra,Mumbai,"Powai, Mumbai - MPCB",2026-07-03 19:00:00,19.1375,72.915056,PM10,,,,"Powai, Mumbai - MPCB|PM10|2026-07-03 19:00:00"
India,Maharashtra,Mumbai,"Powai, Mumbai - MPCB",2026-07-03 19:00:00,19.1375,72.915056,NH3,0.0,0.0,0.0,"Powai, Mumbai - MPCB|NH3|2026-07-03 19:00:00"
India,Maharashtra,Mumbai,"Powai, Mumbai - MPCB",2026-07-03 19:00:00,19.1375,72.915056,SO2,18.0,22.0,19.0,"Powai, Mumbai - MPCB|SO2|2026-07-03 19:00:00"
India,Maharashtra,Mumbai,"Kandivali West, Mumbai - BMC",2026-07-03 19:00:00,19.215859,72.831718,SO2,1.0,3.0,2.0,"Kandivali West, Mumbai - BMC|SO2|2026-07-03 19:00:00"
India,Maharashtra,Mumbai,"Kandivali West, Mumbai - BMC",2026-07-03 19:00:00,19.215859,72.831718,CO,4.0,18.0,9.0,"Kandivali West, Mumbai - BMC|CO|2026-07-03 19:00:00"
India,Maharashtra,Mumbai,"Mulund West, Mumbai - MPCB",2026-07-03 19:00:00,19.175,72.9419,SO2,,,,"Mulund West, Mumbai - MPCB|SO2|2026-07-03 19:00:00"
India,Maharashtra,Mumbai,"Mulund West, Mumbai - MPCB",2026-07-03 19:00:00,19.175,72.9419,CO,,,,"Mulund West, Mumbai - MPCB|CO|2026-07-03 19:00:00"
India,Madhya Pradesh,Dewas,"Bhopal Chauraha, Dewas - MPPCB",2026-07-03 19:00:00,22.9682591,76.064118,CO,31.0,57.0,39.0,"Bhopal Chauraha, Dewas - MPPCB|CO|2026-07-03 19:00:00"
India,Madhya Pradesh,Dewas,"Bhopal Chauraha, Dewas - MPPCB",2026-07-03 19:00:00,22.9682591,76.064118,OZONE,11.0,43.0,18.0,"Bhopal Chauraha, Dewas - MPPCB|OZONE|2026-07-03 19:00:00"
India,Madhya Pradesh,Gwalior,"Deen Dayal Nagar, Gwalior - MPPCB",2026-07-03 19:00:00,26.259242,78.216432,PM2.5,10.0,45.0,32.0,"Deen Dayal Nagar, Gwalior - MPPCB|PM2.5|2026-07-03 19:00:00"
India,Madhya Pradesh,Gwalior,"Maharaj Bada, Gwalior - MPPCB",2026-07-03 19:00:00,26.200388,78.147714,NO2,27.0,80.0,55.0,"Maharaj Bada, Gwalior - MPPCB|NO2|2026-07-03 19:00:00"
India,Madhya Pradesh,Gwalior,"City Center, Gwalior - MPPCB",2026-07-03 19:00:00,26.203442,78.193251,PM10,23.0,64.0,43.0,"City Center, Gwalior - MPPCB|PM10|2026-07-03 19:00:00"
India,Madhya Pradesh,Gwalior,"City Center, Gwalior - MPPCB",2026-07-03 19:00:00,26.203442,78.193251,NO2,10.0,45.0,21.0,"City Center, Gwalior - MPPCB|NO2|2026-07-03 19:00:00"
India,Madhya Pradesh,Gwalior,"City Center, Gwalior - MPPCB",2026-07-03 19:00:00,26.203442,78.193251,OZONE,15.0,42.0,28.0,"City Center, Gwalior - MPPCB|OZONE|2026-07-03 19:00:00"
India,Madhya Pradesh,Indore,"Residency Area, Indore - IMC",2026-07-03 19:00:00,22.7084,75.8815,PM10,5.0,42.0,19.0,"Residency Area, Indore - IMC|PM10|2026-07-03 19:00:00"
India,Madhya Pradesh,Indore,"Residency Area, Indore - IMC",2026-07-03 19:00:00,22.7084,75.8815,NO2,3.0,11.0,8.0,"Residency Area, Indore - IMC|NO2|2026-07-03 19:00:00"
India,Maharashtra,Malegaon,"Mahesh Nagar, Malegaon - MPCB",2026-07-03 19:00:00,20.555712,74.529236,OZONE,9.0,13.0,11.0,"Mahesh Nagar, Malegaon - MPCB|OZONE|2026-07-03 19:00:00"
India,Maharashtra,Mira-Bhayandar,"Bhayandar West, Mira-Bhayandar - MPCB",2026-07-03 19:00:00,19.296481,72.840923,SO2,2.0,3.0,3.0,"Bhayandar West, Mira-Bhayandar - MPCB|SO2|2026-07-03 19:00:00"
India,Maharashtra,Mumbai,"Khindipada-Bhandup West, Mumbai - IITM",2026-07-03 19:00:00,19.1653323,72.922099,PM2.5,1.0,11.0,4.0,"Khindipada-Bhandup West, Mumbai - IITM|PM2.5|2026-07-03 19:00:00"
India,Maharashtra,Mumbai,"Khindipada-Bhandup West, Mumbai - IITM",2026-07-03 19:00:00,19.1653323,72.922099,NO2,,,,"Khindipada-Bhandup West, Mumbai - IITM|NO2|2026-07-03 19:00:00"
India,Maharashtra,Mumbai,"Khindipada-Bhandup West, Mumbai - IITM",2026-07-03 19:00:00,19.1653323,72.922099,NH3,,,,"Khindipada-Bhandup West, Mumbai - IITM|NH3|2026-07-03 19:00:00"
India,Maharashtra,Mumbai,"Khindipada-Bhandup West, Mumbai - IITM",2026-07-03 19:00:00,19.1653323,72.922099,OZONE,10.0,22.0,14.0,"Khindipada-Bhandup West, Mumbai - IITM|OZONE|2026-07-03 19:00:00"
India,Maharashtra,Mumbai,"Mindspace-Malad West, Mumbai - MPCB",2026-07-03 19:00:00,19.1878657,72.8304069,NO2,12.0,14.0,13.0,"Mindspace-Malad West, Mumbai - MPCB|NO2|2026-07-03 19:00:00"
India,Maharashtra,Mumbai,"Mindspace-Malad West, Mumbai - MPCB",2026-07-03 19:00:00,19.1878657,72.8304069,OZONE,42.0,56.0,49.0,"Mindspace-Malad West, Mumbai - MPCB|OZONE|2026-07-03 19:00:00"
India,Maharashtra,Mumbai,"Byculla, Mumbai - BMC",2026-07-03 19:00:00,18.9767,72.838,NH3,2.0,4.0,2.0,"Byculla, Mumbai - BMC|NH3|2026-07-03 19:00:00"
India,Maharashtra,Mumbai,"Byculla, Mumbai - BMC",2026-07-03 19:00:00,18.9767,72.838,SO2,4.0,11.0,7.0,"Byculla, Mumbai - BMC|SO2|2026-07-03 19:00:00"
India,Maharashtra,Mumbai,"Byculla, Mumbai - BMC",2026-07-03 19:00:00,18.9767,72.838,OZONE,4.0,12.0,9.0,"Byculla, Mumbai - BMC|OZONE|2026-07-03 19:00:00"
India,Maharashtra,Mumbai,"Sewri, Mumbai - BMC",2026-07-03 19:00:00,19.000084,72.85673,PM2.5,25.0,57.0,32.0,"Sewri, Mumbai - BMC|PM2.5|2026-07-03 19:00:00"
India,Maharashtra,Ulhasnagar,"Vithalwadi, Ulhasnagar - MPCB",2026-07-03 19:00:00,19.2307571,73.155192,SO2,5.0,11.0,9.0,"Vithalwadi, Ulhasnagar - MPCB|SO2|2026-07-03 19:00:00"
India,Maharashtra,Ulhasnagar,"Sidhi Vinayak Nagar, Ulhasnagar - MPCB",2026-07-03 19:00:00,19.235581,73.159121,PM2.5,21.0,50.0,31.0,"Sidhi Vinayak Nagar, Ulhasnagar - MPCB|PM2.5|2026-07-03 19:00:00"
India,Meghalaya,Byrnihat,"Tamulikuchi, Byrnihat - Meghalaya PCB",2026-07-03 19:00:00,26.079047,91.875185,NO2,,,,"Tamulikuchi, Byrnihat - Meghalaya PCB|NO2|2026-07-03 19:00:00"
India,Meghalaya,Byrnihat,"Tamulikuchi, Byrnihat - Meghalaya PCB",2026-07-03 19:00:00,26.079047,91.875185,NH3,0.0,1.0,0.0,"Tamulikuchi, Byrnihat - Meghalaya PCB|NH3|2026-07-03 19:00:00"
India,Meghalaya,Shillong,"JN Stadium, Shillong - Meghalaya PCB",2026-07-03 19:00:00,25.5803419,91.8942571,NH3,,,,"JN Stadium, Shillong - Meghalaya PCB|NH3|2026-07-03 19:00:00"
India,Meghalaya,Shillong,"JN Stadium, Shillong - Meghalaya PCB",2026-07-03 19:00:00,25.5803419,91.8942571,CO,10.0,21.0,14.0,"JN Stadium, Shillong - Meghalaya PCB|CO|2026-07-03 19:00:00"
India,Meghalaya,Shillong,"Lumpyngngad, Shillong - Meghalaya PCB",2026-07-03 19:00:00,25.5586,91.8985,NH3,0.0,0.0,0.0,"Lumpyngngad, Shillong - Meghalaya PCB|NH3|2026-07-03 19:00:00"
India,Meghalaya,Shillong,"Lumpyngngad, Shillong - Meghalaya PCB",2026-07-03 19:00:00,25.5586,91.8985,SO2,11.0,12.0,11.0,"Lumpyngngad, Shillong - Meghalaya PCB|SO2|2026-07-03 19:00:00"
India,Mizoram,Aizawl,"Sikulpuikawn, Aizawl - Mizoram PCB",2026-07-03 19:00:00,23.7176342,92.7192841,PM2.5,,,,"Sikulpuikawn, Aizawl - Mizoram PCB|PM2.5|2026-07-03 19:00:00"
India,Mizoram,Aizawl,"Sikulpuikawn, Aizawl - Mizoram PCB",2026-07-03 19:00:00,23.7176342,92.7192841,SO2,14.0,15.0,15.0,"Sikulpuikawn, Aizawl - Mizoram PCB|SO2|2026-07-03 19:00:00"
India,Nagaland,Kohima,"PWD Junction, Kohima - NPCB",2026-07-03 19:00:00,25.6635413,94.0989878,PM2.5,1.0,47.0,13.0,"PWD Junction, Kohima - NPCB|PM2.5|2026-07-03 19:00:00"
India,Nagaland,Kohima,"PWD Junction, Kohima - NPCB",2026-07-03 19:00:00,25.6635413,94.0989878,NO2,3.0,6.0,4.0,"PWD Junction, Kohima - NPCB|NO2|2026-07-03 19:00:00"
India,Nagaland,Kohima,"PWD Junction, Kohima - NPCB",2026-07-03 19:00:00,25.6635413,94.0989878,SO2,41.0,57.0,47.0,"PWD Junction, Kohima - NPCB|SO2|2026-07-03 19:00:00"
India,Nagaland,Kohima,"PWD Junction, Kohima - NPCB",2026-07-03 19:00:00,25.6635413,94.0989878,OZONE,,,,"PWD Junction, Kohima - NPCB|OZONE|2026-07-03 19:00:00"
India,Odisha,Angul,"Hakimapada, Angul - OSPCB",2026-07-03 19:00:00,20.832874,85.104082,PM2.5,3.0,302.0,45.0,"Hakimapada, Angul - OSPCB|PM2.5|2026-07-03 19:00:00"
India,Odisha,Balasore,"Kalidaspur, Balasore - OSPCB",2026-07-03 19:00:00,21.51161,86.89088,PM10,13.0,72.0,33.0,"Kalidaspur, Balasore - OSPCB|PM10|2026-07-03 19:00:00"
India,Maharashtra,Nagpur,"Ambazari, Nagpur - MPCB",2026-07-03 19:00:00,21.121801,79.04952,OZONE,7.0,21.0,15.0,"Ambazari, Nagpur - MPCB|OZONE|2026-07-03 19:00:00"
India,Maharashtra,Nagpur,"Ram Nagar, Nagpur - MPCB",2026-07-03 19:00:00,21.143383,79.048912,PM2.5,11.0,49.0,28.0,"Ram Nagar, Nagpur - MPCB|PM2.5|2026-07-03 19:00:00"
India,Maharashtra,Nagpur,"Ram Nagar, Nagpur - MPCB",2026-07-03 19:00:00,21.143383,79.048912,NH3,5.0,6.0,6.0,"Ram Nagar, Nagpur - MPCB|NH3|2026-07-03 19:00:00"
India,Maharashtra,Nagpur,"Ram Nagar, Nagpur - MPCB",2026-07-03 19:00:00,21.143383,79.048912,OZONE,7.0,12.0,10.0,"Ram Nagar, Nagpur - MPCB|OZONE|2026-07-03 19:00:00"
India,Maharashtra,Nanded,"Sneh Nagar, Nanded - MPCB",2026-07-03 19:00:00,19.173852,77.296291,NO2,7.0,40.0,13.0,"Sneh Nagar, Nanded - MPCB|NO2|2026-07-03 19:00:00"
India,Maharashtra,Nanded,"Sneh Nagar, Nanded - MPCB",2026-07-03 19:00:00,19.173852,77.296291,CO,19.0,27.0,22.0,"Sneh Nagar, Nanded - MPCB|CO|2026-07-03 19:00:00"
India,Maharashtra,Nanded,"Sneh Nagar, Nanded - MPCB",2026-07-03 19:00:00,19.173852,77.296291,OZONE,21.0,30.0,26.0,"Sneh Nagar, Nanded - MPCB|OZONE|2026-07-03 19:00:00"
India,Maharashtra,Nashik,"Gangapur Road, Nashik - MPCB",2026-07-03 19:00:00,20.0073285,73.7762427,CO,21.0,22.0,22.0,"Gangapur Road, Nashik - MPCB|CO|2026-07-03 19:00:00"
India,Maharashtra,Nashik,"Pandav Nagari, Nashik - MPCB",2026-07-03 19:00:00,19.9591346,73.7788008,PM2.5,11.0,25.0,17.0,"Pandav Nagari, Nashik - MPCB|PM2.5|2026-07-03 19:00:00"
India,Maharashtra,Nashik,"Pandav Nagari, Nashik - MPCB",2026-07-03 19:00:00,19.9591346,73.7788008,SO2,0.0,3.0,2.0,"Pandav Nagari, Nashik - MPCB|SO2|2026-07-03 19:00:00"
India,Maharashtra,Nashik,"MIDC Ambad, Nashik - MPCB",2026-07-03 19:00:00,19.95022,73.73148,NO2,2.0,10.0,5.0,"MIDC Ambad, Nashik - MPCB|NO2|2026-07-03 19:00:00"
India,Maharashtra,Nashik,"Hirawadi, Nashik - MPCB",2026-07-03 19:00:00,20.021503,73.813844,PM2.5,6.0,28.0,9.0,"Hirawadi, Nashik - MPCB|PM2.5|2026-07-03 19:00:00"
India,Maharashtra,Nashik,"Hirawadi, Nashik - MPCB",2026-07-03 19:00:00,20.021503,73.813844,PM10,7.0,16.0,11.0,"Hirawadi, Nashik - MPCB|PM10|2026-07-03 19:00:00"
India,Maharashtra,Nashik,"Hirawadi, Nashik - MPCB",2026-07-03 19:00:00,20.021503,73.813844,NO2,1.0,4.0,3.0,"Hirawadi, Nashik - MPCB|NO2|2026-07-03 19:00:00"
India,Maharashtra,Nashik,"Hirawadi, Nashik - MPCB",2026-07-03 19:00:00,20.021503,73.813844,OZONE,19.0,26.0,22.0,"Hirawadi, Nashik - MPCB|OZONE|2026-07-03 19:00:00"
India,Maharashtra,Pimpri-Chinchwad,"Park Street Wakad, Pimpri Chinchwad - MPCB",2026-07-03 19:00:00,18.59051,73.77946,SO2,0.0,3.0,1.0,"Park Street Wakad, Pimpri Chinchwad - MPCB|SO2|2026-07-03 19:00:00"
India,Maharashtra,Pimpri-Chinchwad,"Bhosari, Pune - IITM",2026-07-03 19:00:00,18.640051,73.848956,PM2.5,19.0,64.0,39.0,"Bhosari, Pune - IITM|PM2.5|2026-07-03 19:00:00"
India,Maharashtra,Pimpri-Chinchwad,"Bhosari, Pune - IITM",2026-07-03 19:00:00,18.640051,73.848956,PM10,31.0,63.0,42.0,"Bhosari, Pune - IITM|PM10|2026-07-03 19:00:00"
India,Maharashtra,Pimpri-Chinchwad,"Transport Nagar-Nigdi, Pune - IITM",2026-07-03 19:00:00,18.664282,73.763966,NH3,,,,"Transport Nagar-Nigdi, Pune - IITM|NH3|2026-07-03 19:00:00"
India,Maharashtra,Pimpri-Chinchwad,"Transport Nagar-Nigdi, Pune - IITM",2026-07-03 19:00:00,18.664282,73.763966,CO,33.0,55.0,47.0,"Transport Nagar-Nigdi, Pune - IITM|CO|2026-07-03 19:00:00"
India,Maharashtra,Pimpri-Chinchwad,"Thergaon, Pimpri Chinchwad - MPCB",2026-07-03 19:00:00,18.616318,73.765797,PM2.5,21.0,80.0,40.0,"Thergaon, Pimpri Chinchwad - MPCB|PM2.5|2026-07-03 19:00:00"
India,Maharashtra,Pimpri-Chinchwad,"Thergaon, Pimpri Chinchwad - MPCB",2026-07-03 19:00:00,18.616318,73.765797,NO2,7.0,42.0,15.0,"Thergaon, Pimpri Chinchwad - MPCB|NO2|2026-07-03 19:00:00"
India,Maharashtra,Pimpri-Chinchwad,"Savta Mali Nagar, Pimpri-Chinchwad - IITM",2026-07-03 19:00:00,18.614767,73.799516,SO2,,,,"Savta Mali Nagar, Pimpri-Chinchwad - IITM|SO2|2026-07-03 19:00:00"
India,Maharashtra,Pimpri-Chinchwad,"Savta Mali Nagar, Pimpri-Chinchwad - IITM",2026-07-03 19:00:00,18.614767,73.799516,OZONE,4.0,12.0,7.0,"Savta Mali Nagar, Pimpri-Chinchwad - IITM|OZONE|2026-07-03 19:00:00"
India,Maharashtra,Pune,"Mhada Colony, Pune - IITM",2026-07-03 19:00:00,18.57304,73.927715,SO2,,,,"Mhada Colony, Pune - IITM|SO2|2026-07-03 19:00:00"
India,Maharashtra,Pune,"Hadapsar, Pune - IITM",2026-07-03 19:00:00,18.501793,73.927532,PM2.5,11.0,52.0,30.0,"Hadapsar, Pune - IITM|PM2.5|2026-07-03 19:00:00"
India,Maharashtra,Pune,"Revenue Colony-Shivajinagar, Pune - IITM",2026-07-03 19:00:00,18.530085,73.849598,NO2,14.0,31.0,24.0,"Revenue Colony-Shivajinagar, Pune - IITM|NO2|2026-07-03 19:00:00"
India,Maharashtra,Mumbai,"Malad West, Mumbai - IITM",2026-07-03 19:00:00,19.19709,72.82204,PM2.5,2.0,30.0,9.0,"Malad West, Mumbai - IITM|PM2.5|2026-07-03 19:00:00"
India,Maharashtra,Mumbai,"Malad West, Mumbai - IITM",2026-07-03 19:00:00,19.19709,72.82204,PM10,11.0,60.0,21.0,"Malad West, Mumbai - IITM|PM10|2026-07-03 19:00:00"
India,Maharashtra,Mumbai,"Ghatkopar, Mumbai - BMC",2026-07-03 19:00:00,19.083694,72.920967,PM10,12.0,47.0,27.0,"Ghatkopar, Mumbai - BMC|PM10|2026-07-03 19:00:00"
India,Maharashtra,Mumbai,"Worli, Mumbai - MPCB",2026-07-03 19:00:00,18.9936162,72.8128113,OZONE,6.0,10.0,8.0,"Worli, Mumbai - MPCB|OZONE|2026-07-03 19:00:00"
India,Maharashtra,Mumbai,"Deonar, Mumbai - IITM",2026-07-03 19:00:00,19.04946,72.923,NO2,6.0,21.0,15.0,"Deonar, Mumbai - IITM|NO2|2026-07-03 19:00:00"
India,Maharashtra,Mumbai,"Bandra Kurla Complex, Mumbai - IITM",2026-07-03 19:00:00,19.053536,72.84643,CO,23.0,32.0,28.0,"Bandra Kurla Complex, Mumbai - IITM|CO|2026-07-03 19:00:00"
India,Maharashtra,Mumbai,"Bandra Kurla Complex, Mumbai - IITM",2026-07-03 19:00:00,19.053536,72.84643,OZONE,12.0,15.0,13.0,"Bandra Kurla Complex, Mumbai - IITM|OZONE|2026-07-03 19:00:00"
India,Maharashtra,Mumbai,"Chhatrapati Shivaji Intl. Airport (T2), Mumbai - MPCB",2026-07-03 19:00:00,19.10078,72.87462,PM10,,,,"Chhatrapati Shivaji Intl. Airport (T2), Mumbai - MPCB|PM10|2026-07-03 19:00:00"
India,Maharashtra,Mumbai,"Chakala-Andheri East, Mumbai - IITM",2026-07-03 19:00:00,19.11074,72.86084,NH3,7.0,15.0,11.0,"Chakala-Andheri East, Mumbai - IITM|NH3|2026-07-03 19:00:00"
India,Maharashtra,Nagpur,"Opp GPO Civil Lines, Nagpur - MPCB",2026-07-03 19:00:00,21.152875,79.0517531,SO2,3.0,10.0,6.0,"Opp GPO Civil Lines, Nagpur - MPCB|SO2|2026-07-03 19:00:00"
India,Odisha,Balasore,"Kalidaspur, Balasore - OSPCB",2026-07-03 19:00:00,21.51161,86.89088,NO2,4.0,40.0,12.0,"Kalidaspur, Balasore - OSPCB|NO2|2026-07-03 19:00:00"
India,Odisha,Balasore,"Kalidaspur, Balasore - OSPCB",2026-07-03 19:00:00,21.51161,86.89088,NH3,1.0,3.0,3.0,"Kalidaspur, Balasore - OSPCB|NH3|2026-07-03 19:00:00"
India,Odisha,Balasore,"Kalidaspur, Balasore - OSPCB",2026-07-03 19:00:00,21.51161,86.89088,SO2,2.0,5.0,4.0,"Kalidaspur, Balasore - OSPCB|SO2|2026-07-03 19:00:00"
India,Odisha,Balasore,"Kalidaspur, Balasore - OSPCB",2026-07-03 19:00:00,21.51161,86.89088,CO,16.0,39.0,30.0,"Kalidaspur, Balasore - OSPCB|CO|2026-07-03 19:00:00"
India,Odisha,Barbil,"Forest Office, Barbil - OSPCB",2026-07-03 19:00:00,22.1166054,85.3945546,PM2.5,2.0,68.0,24.0,"Forest Office, Barbil - OSPCB|PM2.5|2026-07-03 19:00:00"
India,Odisha,Barbil,"Forest Office, Barbil - OSPCB",2026-07-03 19:00:00,22.1166054,85.3945546,NO2,2.0,10.0,4.0,"Forest Office, Barbil - OSPCB|NO2|2026-07-03 19:00:00"
India,Odisha,Barbil,"Forest Office, Barbil - OSPCB",2026-07-03 19:00:00,22.1166054,85.3945546,CO,9.0,14.0,12.0,"Forest Office, Barbil - OSPCB|CO|2026-07-03 19:00:00"
India,Odisha,Bhubaneswar,"Patia, Bhubaneswar - OSPCB",2026-07-03 19:00:00,20.34652,85.8163,SO2,4.0,68.0,18.0,"Patia, Bhubaneswar - OSPCB|SO2|2026-07-03 19:00:00"
India,Odisha,Bileipada,"Tata Township, Bileipada - OSPCB",2026-07-03 19:00:00,22.06156703,85.47409613,PM2.5,6.0,47.0,16.0,"Tata Township, Bileipada - OSPCB|PM2.5|2026-07-03 19:00:00"
India,Odisha,Brajrajnagar,"GM Office, Brajrajnagar - OSPCB",2026-07-03 19:00:00,21.8004996,83.8396977,OZONE,43.0,47.0,44.0,"GM Office, Brajrajnagar - OSPCB|OZONE|2026-07-03 19:00:00"
India,Maharashtra,Navi Mumbai,"Sanpada, Navi Mumbai - MPCB",2026-07-03 19:00:00,19.0575752,73.0151367,PM2.5,10.0,22.0,12.0,"Sanpada, Navi Mumbai - MPCB|PM2.5|2026-07-03 19:00:00"
India,Maharashtra,Navi Mumbai,"Sanpada, Navi Mumbai - MPCB",2026-07-03 19:00:00,19.0575752,73.0151367,NO2,3.0,11.0,7.0,"Sanpada, Navi Mumbai - MPCB|NO2|2026-07-03 19:00:00"
India,Maharashtra,Navi Mumbai,"Nerul, Navi Mumbai - MPCB",2026-07-03 19:00:00,19.008751,73.01662,SO2,,,,"Nerul, Navi Mumbai - MPCB|SO2|2026-07-03 19:00:00"
India,Maharashtra,Navi Mumbai,"Kopripada-Vashi, Navi Mumbai - MPCB",2026-07-03 19:00:00,19.090337,73.014232,NH3,7.0,11.0,9.0,"Kopripada-Vashi, Navi Mumbai - MPCB|NH3|2026-07-03 19:00:00"
India,Maharashtra,Parbhani,"Masoom Colony, Parbhani - MPCB",2026-07-03 19:00:00,19.265594,76.761463,NO2,26.0,52.0,39.0,"Masoom Colony, Parbhani - MPCB|NO2|2026-07-03 19:00:00"
India,Maharashtra,Pimpri-Chinchwad,"Gavalinagar, Pimpri Chinchwad - MPCB",2026-07-03 19:00:00,18.63673,73.82487,PM10,34.0,56.0,43.0,"Gavalinagar, Pimpri Chinchwad - MPCB|PM10|2026-07-03 19:00:00"
India,Maharashtra,Pimpri-Chinchwad,"Gavalinagar, Pimpri Chinchwad - MPCB",2026-07-03 19:00:00,18.63673,73.82487,CO,9.0,14.0,12.0,"Gavalinagar, Pimpri Chinchwad - MPCB|CO|2026-07-03 19:00:00"
India,Maharashtra,Pimpri-Chinchwad,"Park Street Wakad, Pimpri Chinchwad - MPCB",2026-07-03 19:00:00,18.59051,73.77946,PM10,27.0,41.0,33.0,"Park Street Wakad, Pimpri Chinchwad - MPCB|PM10|2026-07-03 19:00:00"
India,Maharashtra,Satara,"Koyana Nagar, Satara - MPCB",2026-07-03 19:00:00,17.696651,74.003387,PM10,2.0,98.0,21.0,"Koyana Nagar, Satara - MPCB|PM10|2026-07-03 19:00:00"
India,Maharashtra,Satara,"Koyana Nagar, Satara - MPCB",2026-07-03 19:00:00,17.696651,74.003387,OZONE,22.0,31.0,26.0,"Koyana Nagar, Satara - MPCB|OZONE|2026-07-03 19:00:00"
India,Maharashtra,Solapur,"Dnyaneshwar Nagar, Solapur - MPCB",2026-07-03 19:00:00,17.6336264,75.9132495,NH3,8.0,19.0,10.0,"Dnyaneshwar Nagar, Solapur - MPCB|NH3|2026-07-03 19:00:00"
India,Maharashtra,Solapur,"Ratandeep Housing Society, Solapur - MPCB",2026-07-03 19:00:00,17.65439,75.90649,CO,12.0,18.0,16.0,"Ratandeep Housing Society, Solapur - MPCB|CO|2026-07-03 19:00:00"
India,Maharashtra,Thane,"Kasarvadavali, Thane - MPCB",2026-07-03 19:00:00,19.26777,72.97182,NH3,1.0,4.0,2.0,"Kasarvadavali, Thane - MPCB|NH3|2026-07-03 19:00:00"
India,Maharashtra,Ulhasnagar,"Vithalwadi, Ulhasnagar - MPCB",2026-07-03 19:00:00,19.2307571,73.155192,PM2.5,,,,"Vithalwadi, Ulhasnagar - MPCB|PM2.5|2026-07-03 19:00:00"
India,Maharashtra,Pune,"Savitribai Phule Pune University, Pune - MPCB",2026-07-03 19:00:00,18.547056,73.826908,PM2.5,,,,"Savitribai Phule Pune University, Pune - MPCB|PM2.5|2026-07-03 19:00:00"
India,Maharashtra,Pune,"Savitribai Phule Pune University, Pune - MPCB",2026-07-03 19:00:00,18.547056,73.826908,PM10,,,,"Savitribai Phule Pune University, Pune - MPCB|PM10|2026-07-03 19:00:00"
India,Maharashtra,Pune,"Panchawati_Pashan, Pune - IITM",2026-07-03 19:00:00,18.536457,73.805454,NH3,,,,"Panchawati_Pashan, Pune - IITM|NH3|2026-07-03 19:00:00"
India,Maharashtra,Pune,"Panchawati_Pashan, Pune - IITM",2026-07-03 19:00:00,18.536457,73.805454,OZONE,2.0,5.0,4.0,"Panchawati_Pashan, Pune - IITM|OZONE|2026-07-03 19:00:00"
India,Maharashtra,Pune,"Dhankawadi, Pune - IITM",2026-07-03 19:00:00,18.459883,73.852193,OZONE,2.0,34.0,14.0,"Dhankawadi, Pune - IITM|OZONE|2026-07-03 19:00:00"
India,Maharashtra,Sangli,"Vijay Nagar, Sangli - MPCB",2026-07-03 19:00:00,16.5038,74.3623,PM10,12.0,49.0,25.0,"Vijay Nagar, Sangli - MPCB|PM10|2026-07-03 19:00:00"
India,Maharashtra,Sangli,"Vijay Nagar, Sangli - MPCB",2026-07-03 19:00:00,16.5038,74.3623,SO2,8.0,11.0,10.0,"Vijay Nagar, Sangli - MPCB|SO2|2026-07-03 19:00:00"
India,Maharashtra,Navi Mumbai,"Mahape, Navi Mumbai - MPCB",2026-07-03 19:00:00,19.1135051,73.008978,OZONE,8.0,23.0,16.0,"Mahape, Navi Mumbai - MPCB|OZONE|2026-07-03 19:00:00"
India,Maharashtra,Navi Mumbai,"Sector-2E Kalamboli, Navi Mumbai - MPCB",2026-07-03 19:00:00,19.02579,73.10297,PM2.5,9.0,18.0,13.0,"Sector-2E Kalamboli, Navi Mumbai - MPCB|PM2.5|2026-07-03 19:00:00"
India,Maharashtra,Navi Mumbai,"Sector-2E Kalamboli, Navi Mumbai - MPCB",2026-07-03 19:00:00,19.02579,73.10297,NO2,14.0,19.0,17.0,"Sector-2E Kalamboli, Navi Mumbai - MPCB|NO2|2026-07-03 19:00:00"
India,Rajasthan,Jaisalmer,"Sadar Bazar, Jaisalmer - RSPCB",2026-07-03 19:00:00,26.912329,70.909168,NO2,3.0,12.0,7.0,"Sadar Bazar, Jaisalmer - RSPCB|NO2|2026-07-03 19:00:00"
India,Rajasthan,Jaisalmer,"Sadar Bazar, Jaisalmer - RSPCB",2026-07-03 19:00:00,26.912329,70.909168,CO,7.0,14.0,11.0,"Sadar Bazar, Jaisalmer - RSPCB|CO|2026-07-03 19:00:00"
India,Rajasthan,Jaisalmer,"Sadar Bazar, Jaisalmer - RSPCB",2026-07-03 19:00:00,26.912329,70.909168,OZONE,31.0,44.0,36.0,"Sadar Bazar, Jaisalmer - RSPCB|OZONE|2026-07-03 19:00:00"
India,Rajasthan,Jhalawar,"Rajlaxmi Nagar, Jhalawar - RSPCB",2026-07-03 19:00:00,24.588397,76.172782,PM10,12.0,47.0,28.0,"Rajlaxmi Nagar, Jhalawar - RSPCB|PM10|2026-07-03 19:00:00"
India,Rajasthan,Jhalawar,"Rajlaxmi Nagar, Jhalawar - RSPCB",2026-07-03 19:00:00,24.588397,76.172782,NO2,7.0,21.0,16.0,"Rajlaxmi Nagar, Jhalawar - RSPCB|NO2|2026-07-03 19:00:00"
India,Rajasthan,Jhalawar,"Rajlaxmi Nagar, Jhalawar - RSPCB",2026-07-03 19:00:00,24.588397,76.172782,NH3,2.0,6.0,4.0,"Rajlaxmi Nagar, Jhalawar - RSPCB|NH3|2026-07-03 19:00:00"
India,Rajasthan,Jhalawar,"Rajlaxmi Nagar, Jhalawar - RSPCB",2026-07-03 19:00:00,24.588397,76.172782,OZONE,44.0,53.0,48.0,"Rajlaxmi Nagar, Jhalawar - RSPCB|OZONE|2026-07-03 19:00:00"
India,Rajasthan,Jhunjhunu,"Indra Nagar, Jhunjhunu - RSPCB",2026-07-03 19:00:00,28.108988,75.386577,NO2,5.0,31.0,12.0,"Indra Nagar, Jhunjhunu - RSPCB|NO2|2026-07-03 19:00:00"
India,Rajasthan,Jodhpur,"Jhalamand, Jodhpur - RSPCB",2026-07-03 19:00:00,26.215415,73.070156,PM2.5,13.0,173.0,37.0,"Jhalamand, Jodhpur - RSPCB|PM2.5|2026-07-03 19:00:00"
India,Rajasthan,Jodhpur,"Jhalamand, Jodhpur - RSPCB",2026-07-03 19:00:00,26.215415,73.070156,SO2,0.0,6.0,2.0,"Jhalamand, Jodhpur - RSPCB|SO2|2026-07-03 19:00:00"
India,Rajasthan,Jodhpur,"Mandor, Jodhpur - RSPCB",2026-07-03 19:00:00,26.358805,73.047444,PM2.5,25.0,87.0,46.0,"Mandor, Jodhpur - RSPCB|PM2.5|2026-07-03 19:00:00"
India,Rajasthan,Jodhpur,"Samrat Ashok Udhyan, Jodhpur - RSPCB",2026-07-03 19:00:00,26.253384,72.976571,SO2,2.0,5.0,3.0,"Samrat Ashok Udhyan, Jodhpur - RSPCB|SO2|2026-07-03 19:00:00"
India,Rajasthan,Jodhpur,"Samrat Ashok Udhyan, Jodhpur - RSPCB",2026-07-03 19:00:00,26.253384,72.976571,OZONE,32.0,49.0,41.0,"Samrat Ashok Udhyan, Jodhpur - RSPCB|OZONE|2026-07-03 19:00:00"
India,Rajasthan,Jodhpur,"Collectorate, Jodhpur - RSPCB",2026-07-03 19:00:00,26.268249,73.0193853,NO2,14.0,20.0,18.0,"Collectorate, Jodhpur - RSPCB|NO2|2026-07-03 19:00:00"
India,Rajasthan,Jodhpur,"Digari Kalan, Jodhpur - RSPCB",2026-07-03 19:00:00,26.29581,73.082283,PM2.5,5.0,63.0,29.0,"Digari Kalan, Jodhpur - RSPCB|PM2.5|2026-07-03 19:00:00"
India,Rajasthan,Jodhpur,"Digari Kalan, Jodhpur - RSPCB",2026-07-03 19:00:00,26.29581,73.082283,NH3,4.0,5.0,4.0,"Digari Kalan, Jodhpur - RSPCB|NH3|2026-07-03 19:00:00"
India,Rajasthan,Jodhpur,"Digari Kalan, Jodhpur - RSPCB",2026-07-03 19:00:00,26.29581,73.082283,SO2,1.0,3.0,2.0,"Digari Kalan, Jodhpur - RSPCB|SO2|2026-07-03 19:00:00"
India,Odisha,Keonjhar,"Jagamohanpur, Keonjhar - OSPCB",2026-07-03 19:00:00,21.6439,85.599355,PM2.5,23.0,34.0,29.0,"Jagamohanpur, Keonjhar - OSPCB|PM2.5|2026-07-03 19:00:00"
India,Odisha,Keonjhar,"Jagamohanpur, Keonjhar - OSPCB",2026-07-03 19:00:00,21.6439,85.599355,SO2,15.0,18.0,16.0,"Jagamohanpur, Keonjhar - OSPCB|SO2|2026-07-03 19:00:00"
India,Odisha,Keonjhar,"Jagamohanpur, Keonjhar - OSPCB",2026-07-03 19:00:00,21.6439,85.599355,CO,33.0,38.0,36.0,"Jagamohanpur, Keonjhar - OSPCB|CO|2026-07-03 19:00:00"
India,Odisha,Nayagarh,"Dabuna, Nayagarh - OSPCB",2026-07-03 19:00:00,21.847279,85.416905,PM10,,,,"Dabuna, Nayagarh - OSPCB|PM10|2026-07-03 19:00:00"
India,Rajasthan,Baran,"Bamboliya, Baran - RSPCB",2026-07-03 19:00:00,25.106006,76.469948,SO2,8.0,19.0,10.0,"Bamboliya, Baran - RSPCB|SO2|2026-07-03 19:00:00"
India,Rajasthan,Barmer,"Railway Colony, Barmer - RSPCB",2026-07-03 19:00:00,25.747299,71.393989,NO2,2.0,17.0,6.0,"Railway Colony, Barmer - RSPCB|NO2|2026-07-03 19:00:00"
India,Rajasthan,Barmer,"Railway Colony, Barmer - RSPCB",2026-07-03 19:00:00,25.747299,71.393989,CO,12.0,19.0,14.0,"Railway Colony, Barmer - RSPCB|CO|2026-07-03 19:00:00"
India,Rajasthan,Bhilwara,"Pratap Nagar, Bhilwara - RSPCB",2026-07-03 19:00:00,25.339605,74.618883,NO2,7.0,22.0,14.0,"Pratap Nagar, Bhilwara - RSPCB|NO2|2026-07-03 19:00:00"
India,Rajasthan,Bhiwadi,"Vasundhara Nagar_UIT, Bhiwadi - RSPCB",2026-07-03 19:00:00,28.207266,76.829265,PM10,,,,"Vasundhara Nagar_UIT, Bhiwadi - RSPCB|PM10|2026-07-03 19:00:00"
India,Rajasthan,Bhiwadi,"Vasundhara Nagar_UIT, Bhiwadi - RSPCB",2026-07-03 19:00:00,28.207266,76.829265,SO2,15.0,17.0,16.0,"Vasundhara Nagar_UIT, Bhiwadi - RSPCB|SO2|2026-07-03 19:00:00"
India,Rajasthan,Bhiwadi,"Vasundhara Nagar_UIT, Bhiwadi - RSPCB",2026-07-03 19:00:00,28.207266,76.829265,OZONE,11.0,62.0,39.0,"Vasundhara Nagar_UIT, Bhiwadi - RSPCB|OZONE|2026-07-03 19:00:00"
India,Punjab,Rupnagar,"Ratanpura, Rupnagar - Ambuja Cements",2026-07-03 19:00:00,31.0325454,76.5623046,CO,51.0,55.0,53.0,"Ratanpura, Rupnagar - Ambuja Cements|CO|2026-07-03 19:00:00"
India,Rajasthan,Ajmer,"Civil Lines,  Ajmer - RSPCB",2026-07-03 19:00:00,26.470859,74.646594,NO2,30.0,43.0,34.0,"Civil Lines,  Ajmer - RSPCB|NO2|2026-07-03 19:00:00"
India,Rajasthan,Ajmer,"Civil Lines,  Ajmer - RSPCB",2026-07-03 19:00:00,26.470859,74.646594,SO2,19.0,26.0,23.0,"Civil Lines,  Ajmer - RSPCB|SO2|2026-07-03 19:00:00"
India,Rajasthan,Ajmer,"Civil Lines,  Ajmer - RSPCB",2026-07-03 19:00:00,26.470859,74.646594,OZONE,9.0,21.0,16.0,"Civil Lines,  Ajmer - RSPCB|OZONE|2026-07-03 19:00:00"
India,Rajasthan,Alwar,"Moti Doongri, Alwar - RSPCB",2026-07-03 19:00:00,27.554793,76.611536,CO,47.0,89.0,65.0,"Moti Doongri, Alwar - RSPCB|CO|2026-07-03 19:00:00"
India,Rajasthan,Jaipur,"Mansarovar Sector-12, Jaipur - RSPCB",2026-07-03 19:00:00,26.843698,75.766894,OZONE,80.0,149.0,112.0,"Mansarovar Sector-12, Jaipur - RSPCB|OZONE|2026-07-03 19:00:00"
India,Rajasthan,Jaipur,"Shastri Nagar, Jaipur - RSPCB",2026-07-03 19:00:00,26.9502929,75.730943,CO,45.0,85.0,59.0,"Shastri Nagar, Jaipur - RSPCB|CO|2026-07-03 19:00:00"
India,Rajasthan,Jodhpur,"Digari Kalan, Jodhpur - RSPCB",2026-07-03 19:00:00,26.29581,73.082283,OZONE,22.0,214.0,66.0,"Digari Kalan, Jodhpur - RSPCB|OZONE|2026-07-03 19:00:00"
India,Rajasthan,Karauli,"Satyawati Vihar, Karauli - RSPCB",2026-07-03 19:00:00,26.506177,77.025989,PM2.5,10.0,31.0,20.0,"Satyawati Vihar, Karauli - RSPCB|PM2.5|2026-07-03 19:00:00"
India,Rajasthan,Karauli,"Satyawati Vihar, Karauli - RSPCB",2026-07-03 19:00:00,26.506177,77.025989,NH3,5.0,13.0,8.0,"Satyawati Vihar, Karauli - RSPCB|NH3|2026-07-03 19:00:00"
India,Telangana,Hyderabad,"New Malakpet, Hyderabad - TSPCB",2026-07-03 19:00:00,17.37206,78.50864,NH3,1.0,3.0,2.0,"New Malakpet, Hyderabad - TSPCB|NH3|2026-07-03 19:00:00"
India,Telangana,Hyderabad,"New Malakpet, Hyderabad - TSPCB",2026-07-03 19:00:00,17.37206,78.50864,SO2,6.0,12.0,8.0,"New Malakpet, Hyderabad - TSPCB|SO2|2026-07-03 19:00:00"
India,Telangana,Hyderabad,"IITH Kandi, Hyderabad - TSPCB",2026-07-03 19:00:00,17.585705,78.126199,NO2,,,,"IITH Kandi, Hyderabad - TSPCB|NO2|2026-07-03 19:00:00"
India,Telangana,Hyderabad,"IITH Kandi, Hyderabad - TSPCB",2026-07-03 19:00:00,17.585705,78.126199,CO,26.0,27.0,27.0,"IITH Kandi, Hyderabad - TSPCB|CO|2026-07-03 19:00:00"
India,Telangana,Hyderabad,"ICRISAT Patancheru, Hyderabad - TSPCB",2026-07-03 19:00:00,17.5184,78.278777,PM10,13.0,47.0,25.0,"ICRISAT Patancheru, Hyderabad - TSPCB|PM10|2026-07-03 19:00:00"
India,Telangana,Hyderabad,"ICRISAT Patancheru, Hyderabad - TSPCB",2026-07-03 19:00:00,17.5184,78.278777,NO2,2.0,12.0,7.0,"ICRISAT Patancheru, Hyderabad - TSPCB|NO2|2026-07-03 19:00:00"
India,Telangana,Hyderabad,"ICRISAT Patancheru, Hyderabad - TSPCB",2026-07-03 19:00:00,17.5184,78.278777,CO,5.0,22.0,12.0,"ICRISAT Patancheru, Hyderabad - TSPCB|CO|2026-07-03 19:00:00"
India,Telangana,Hyderabad,"ICRISAT Patancheru, Hyderabad - TSPCB",2026-07-03 19:00:00,17.5184,78.278777,OZONE,16.0,21.0,19.0,"ICRISAT Patancheru, Hyderabad - TSPCB|OZONE|2026-07-03 19:00:00"
India,Telangana,Hyderabad,"IDA Pashamylaram, Hyderabad - TSPCB",2026-07-03 19:00:00,17.5316895,78.218939,NO2,0.0,49.0,22.0,"IDA Pashamylaram, Hyderabad - TSPCB|NO2|2026-07-03 19:00:00"
India,Telangana,Hyderabad,"IDA Pashamylaram, Hyderabad - TSPCB",2026-07-03 19:00:00,17.5316895,78.218939,SO2,0.0,23.0,10.0,"IDA Pashamylaram, Hyderabad - TSPCB|SO2|2026-07-03 19:00:00"
India,Telangana,Hyderabad,"IDA Pashamylaram, Hyderabad - TSPCB",2026-07-03 19:00:00,17.5316895,78.218939,CO,8.0,20.0,15.0,"IDA Pashamylaram, Hyderabad - TSPCB|CO|2026-07-03 19:00:00"
India,Telangana,Hyderabad,"Central University, Hyderabad - TSPCB",2026-07-03 19:00:00,17.460103,78.334361,NH3,0.0,4.0,2.0,"Central University, Hyderabad - TSPCB|NH3|2026-07-03 19:00:00"
India,Telangana,Hyderabad,"Central University, Hyderabad - TSPCB",2026-07-03 19:00:00,17.460103,78.334361,OZONE,6.0,11.0,10.0,"Central University, Hyderabad - TSPCB|OZONE|2026-07-03 19:00:00"
India,Telangana,Hyderabad,"Kokapet, Hyderabad - TSPCB",2026-07-03 19:00:00,17.393559,78.339194,PM10,45.0,73.0,54.0,"Kokapet, Hyderabad - TSPCB|PM10|2026-07-03 19:00:00"
India,Telangana,Hyderabad,"Kokapet, Hyderabad - TSPCB",2026-07-03 19:00:00,17.393559,78.339194,CO,22.0,33.0,28.0,"Kokapet, Hyderabad - TSPCB|CO|2026-07-03 19:00:00"
India,Telangana,Hyderabad,"Zoo Park, Hyderabad - TSPCB",2026-07-03 19:00:00,17.349694,78.451437,NH3,2.0,2.0,2.0,"Zoo Park, Hyderabad - TSPCB|NH3|2026-07-03 19:00:00"
India,Telangana,Hyderabad,"Kompally Municipal Office, Hyderabad - TSPCB",2026-07-03 19:00:00,17.544899,78.486949,PM2.5,35.0,42.0,41.0,"Kompally Municipal Office, Hyderabad - TSPCB|PM2.5|2026-07-03 19:00:00"
India,Telangana,Hyderabad,"Kompally Municipal Office, Hyderabad - TSPCB",2026-07-03 19:00:00,17.544899,78.486949,NO2,13.0,17.0,15.0,"Kompally Municipal Office, Hyderabad - TSPCB|NO2|2026-07-03 19:00:00"
India,Telangana,Hyderabad,"Kompally Municipal Office, Hyderabad - TSPCB",2026-07-03 19:00:00,17.544899,78.486949,NH3,2.0,5.0,3.0,"Kompally Municipal Office, Hyderabad - TSPCB|NH3|2026-07-03 19:00:00"
India,Telangana,Hyderabad,"Kompally Municipal Office, Hyderabad - TSPCB",2026-07-03 19:00:00,17.544899,78.486949,SO2,,,,"Kompally Municipal Office, Hyderabad - TSPCB|SO2|2026-07-03 19:00:00"
India,Telangana,Hyderabad,"Ramachandrapuram, Hyderabad - TSPCB",2026-07-03 19:00:00,17.528544,78.286195,PM10,58.0,74.0,64.0,"Ramachandrapuram, Hyderabad - TSPCB|PM10|2026-07-03 19:00:00"
India,Rajasthan,Nagaur,"Karni Colony, Nagaur - RSPCB",2026-07-03 19:00:00,27.213494,73.734444,PM10,17.0,153.0,61.0,"Karni Colony, Nagaur - RSPCB|PM10|2026-07-03 19:00:00"
India,Rajasthan,Nagaur,"Karni Colony, Nagaur - RSPCB",2026-07-03 19:00:00,27.213494,73.734444,CO,11.0,21.0,16.0,"Karni Colony, Nagaur - RSPCB|CO|2026-07-03 19:00:00"
India,Rajasthan,Nagaur,"Karni Colony, Nagaur - RSPCB",2026-07-03 19:00:00,27.213494,73.734444,OZONE,29.0,53.0,39.0,"Karni Colony, Nagaur - RSPCB|OZONE|2026-07-03 19:00:00"
India,Rajasthan,Pali,"Indira Colony Vistar, Pali - RSPCB",2026-07-03 19:00:00,25.771061,73.340227,NH3,,,,"Indira Colony Vistar, Pali - RSPCB|NH3|2026-07-03 19:00:00"
India,Rajasthan,Pratapgarh,"Pragati Nagar, Pratapgarh - RSPCB",2026-07-03 19:00:00,24.041198,74.780702,PM2.5,2.0,57.0,21.0,"Pragati Nagar, Pratapgarh - RSPCB|PM2.5|2026-07-03 19:00:00"
India,Rajasthan,Pratapgarh,"Pragati Nagar, Pratapgarh - RSPCB",2026-07-03 19:00:00,24.041198,74.780702,NH3,2.0,3.0,2.0,"Pragati Nagar, Pratapgarh - RSPCB|NH3|2026-07-03 19:00:00"
India,Rajasthan,Pratapgarh,"Pragati Nagar, Pratapgarh - RSPCB",2026-07-03 19:00:00,24.041198,74.780702,OZONE,40.0,71.0,60.0,"Pragati Nagar, Pratapgarh - RSPCB|OZONE|2026-07-03 19:00:00"
India,Rajasthan,Sawai Madhopur,"Sahu Nagar, Sawai Madhopur - RSPCB",2026-07-03 19:00:00,26.031443,76.359327,PM2.5,,,,"Sahu Nagar, Sawai Madhopur - RSPCB|PM2.5|2026-07-03 19:00:00"
India,Rajasthan,Sawai Madhopur,"Sahu Nagar, Sawai Madhopur - RSPCB",2026-07-03 19:00:00,26.031443,76.359327,NH3,4.0,8.0,5.0,"Sahu Nagar, Sawai Madhopur - RSPCB|NH3|2026-07-03 19:00:00"
India,Rajasthan,Sawai Madhopur,"Sahu Nagar, Sawai Madhopur - RSPCB",2026-07-03 19:00:00,26.031443,76.359327,OZONE,50.0,59.0,53.0,"Sahu Nagar, Sawai Madhopur - RSPCB|OZONE|2026-07-03 19:00:00"
India,Rajasthan,Sikar,"Radhakishan Pura, Sikar - RSPCB",2026-07-03 19:00:00,27.608912,75.153302,CO,13.0,22.0,17.0,"Radhakishan Pura, Sikar - RSPCB|CO|2026-07-03 19:00:00"
India,Rajasthan,Sirohi,"Vedhaynath Colony, Sirohi - RSPCB",2026-07-03 19:00:00,24.885261,72.857549,PM2.5,15.0,43.0,29.0,"Vedhaynath Colony, Sirohi - RSPCB|PM2.5|2026-07-03 19:00:00"
India,Rajasthan,Sirohi,"Vedhaynath Colony, Sirohi - RSPCB",2026-07-03 19:00:00,24.885261,72.857549,NH3,1.0,2.0,2.0,"Vedhaynath Colony, Sirohi - RSPCB|NH3|2026-07-03 19:00:00"
India,Rajasthan,Sirohi,"Vedhaynath Colony, Sirohi - RSPCB",2026-07-03 19:00:00,24.885261,72.857549,CO,15.0,24.0,19.0,"Vedhaynath Colony, Sirohi - RSPCB|CO|2026-07-03 19:00:00"
India,Rajasthan,Sri Ganganagar,"Old City, Sri Ganganagar - RSPCB",2026-07-03 19:00:00,29.931624,73.864511,PM2.5,22.0,87.0,42.0,"Old City, Sri Ganganagar - RSPCB|PM2.5|2026-07-03 19:00:00"
India,Rajasthan,Dholpur,"Raja Ganj, Dholpur - RSPCB",2026-07-03 19:00:00,26.699557,77.898881,CO,27.0,55.0,44.0,"Raja Ganj, Dholpur - RSPCB|CO|2026-07-03 19:00:00"
India,Rajasthan,Dungarpur,"Bhoiwada, Dungarpur - RSPCB",2026-07-03 19:00:00,23.837789,73.714926,NH3,9.0,19.0,12.0,"Bhoiwada, Dungarpur - RSPCB|NH3|2026-07-03 19:00:00"
India,Rajasthan,Hanumangarh,"Housing Board, Hanumangarh - RSPCB",2026-07-03 19:00:00,29.61075,74.283608,PM2.5,13.0,38.0,26.0,"Housing Board, Hanumangarh - RSPCB|PM2.5|2026-07-03 19:00:00"
India,Rajasthan,Jaipur,"RIICO Sitapura, Jaipur - RSPCB",2026-07-03 19:00:00,26.786682,75.827928,NH3,2.0,2.0,2.0,"RIICO Sitapura, Jaipur - RSPCB|NH3|2026-07-03 19:00:00"
India,Rajasthan,Jaipur,"RIICO Sitapura, Jaipur - RSPCB",2026-07-03 19:00:00,26.786682,75.827928,SO2,1.0,13.0,5.0,"RIICO Sitapura, Jaipur - RSPCB|SO2|2026-07-03 19:00:00"
India,Rajasthan,Jaipur,"RIICO Sitapura, Jaipur - RSPCB",2026-07-03 19:00:00,26.786682,75.827928,OZONE,6.0,57.0,41.0,"RIICO Sitapura, Jaipur - RSPCB|OZONE|2026-07-03 19:00:00"
India,Rajasthan,Jaipur,"Police Commissionerate, Jaipur - RSPCB",2026-07-03 19:00:00,26.9164092,75.7994901,PM10,30.0,107.0,75.0,"Police Commissionerate, Jaipur - RSPCB|PM10|2026-07-03 19:00:00"
India,Rajasthan,Jaipur,"Police Commissionerate, Jaipur - RSPCB",2026-07-03 19:00:00,26.9164092,75.7994901,NH3,7.0,12.0,9.0,"Police Commissionerate, Jaipur - RSPCB|NH3|2026-07-03 19:00:00"
India,Rajasthan,Jaipur,"Sector-2 Murlipura, Jaipur - RSPCB",2026-07-03 19:00:00,26.960669,75.771817,NO2,11.0,38.0,23.0,"Sector-2 Murlipura, Jaipur - RSPCB|NO2|2026-07-03 19:00:00"
India,Rajasthan,Jaipur,"Sector-2 Murlipura, Jaipur - RSPCB",2026-07-03 19:00:00,26.960669,75.771817,SO2,0.0,4.0,2.0,"Sector-2 Murlipura, Jaipur - RSPCB|SO2|2026-07-03 19:00:00"
India,Rajasthan,Jaipur,"Adarsh Nagar, Jaipur - RSPCB",2026-07-03 19:00:00,26.902909,75.836858,SO2,,,,"Adarsh Nagar, Jaipur - RSPCB|SO2|2026-07-03 19:00:00"
India,Rajasthan,Jaipur,"Mansarovar Sector-12, Jaipur - RSPCB",2026-07-03 19:00:00,26.843698,75.766894,PM10,7.0,101.0,59.0,"Mansarovar Sector-12, Jaipur - RSPCB|PM10|2026-07-03 19:00:00"
India,Rajasthan,Sri Ganganagar,"Old City, Sri Ganganagar - RSPCB",2026-07-03 19:00:00,29.931624,73.864511,SO2,0.0,5.0,3.0,"Old City, Sri Ganganagar - RSPCB|SO2|2026-07-03 19:00:00"
India,Rajasthan,Udaipur,"Ashok Nagar, Udaipur - RSPCB",2026-07-03 19:00:00,24.5886166,73.6321397,PM2.5,27.0,98.0,58.0,"Ashok Nagar, Udaipur - RSPCB|PM2.5|2026-07-03 19:00:00"
India,Rajasthan,Udaipur,"Ashok Nagar, Udaipur - RSPCB",2026-07-03 19:00:00,24.5886166,73.6321397,CO,12.0,35.0,26.0,"Ashok Nagar, Udaipur - RSPCB|CO|2026-07-03 19:00:00"
India,Sikkim,Gangtok,"Zero Point GICI, Gangtok - SSPCB",2026-07-03 19:00:00,27.33853,88.614099,SO2,1.0,1.0,1.0,"Zero Point GICI, Gangtok - SSPCB|SO2|2026-07-03 19:00:00"
India,Tamil Nadu,Chennai,"Perungudi, Chennai - TNPCB",2026-07-03 19:00:00,12.9533,80.2357,PM2.5,2.0,33.0,14.0,"Perungudi, Chennai - TNPCB|PM2.5|2026-07-03 19:00:00"
India,Tamil Nadu,Chennai,"Perungudi, Chennai - TNPCB",2026-07-03 19:00:00,12.9533,80.2357,PM10,31.0,87.0,53.0,"Perungudi, Chennai - TNPCB|PM10|2026-07-03 19:00:00"
India,Tamil Nadu,Chennai,"Perungudi, Chennai - TNPCB",2026-07-03 19:00:00,12.9533,80.2357,NO2,3.0,6.0,5.0,"Perungudi, Chennai - TNPCB|NO2|2026-07-03 19:00:00"
India,Tamil Nadu,Chennai,"Perungudi, Chennai - TNPCB",2026-07-03 19:00:00,12.9533,80.2357,CO,17.0,31.0,22.0,"Perungudi, Chennai - TNPCB|CO|2026-07-03 19:00:00"
India,Tamil Nadu,Chennai,"Velachery Res. Area, Chennai - CPCB",2026-07-03 19:00:00,13.0052189,80.2398125,PM2.5,43.0,71.0,66.0,"Velachery Res. Area, Chennai - CPCB|PM2.5|2026-07-03 19:00:00"
India,Tamil Nadu,Chennai,"Velachery Res. Area, Chennai - CPCB",2026-07-03 19:00:00,13.0052189,80.2398125,NH3,3.0,3.0,3.0,"Velachery Res. Area, Chennai - CPCB|NH3|2026-07-03 19:00:00"
India,Tamil Nadu,Chennai,"Arumbakkam, Chennai - TNPCB",2026-07-03 19:00:00,13.0664,80.2112,PM10,51.0,114.0,79.0,"Arumbakkam, Chennai - TNPCB|PM10|2026-07-03 19:00:00"
India,Tamil Nadu,Chennai,"Arumbakkam, Chennai - TNPCB",2026-07-03 19:00:00,13.0664,80.2112,CO,,,,"Arumbakkam, Chennai - TNPCB|CO|2026-07-03 19:00:00"
India,Tamil Nadu,Chennai,"Manali Village, Chennai - TNPCB",2026-07-03 19:00:00,13.1662,80.2584,CO,30.0,32.0,31.0,"Manali Village, Chennai - TNPCB|CO|2026-07-03 19:00:00"
India,Tamil Nadu,Chennai,"Manali, Chennai - CPCB",2026-07-03 19:00:00,13.164544,80.26285,CO,14.0,63.0,43.0,"Manali, Chennai - CPCB|CO|2026-07-03 19:00:00"
India,Tamil Nadu,Chennai,"Royapuram, Chennai - TNPCB",2026-07-03 19:00:00,13.1036,80.2909,NO2,12.0,16.0,14.0,"Royapuram, Chennai - TNPCB|NO2|2026-07-03 19:00:00"
India,Tamil Nadu,Cuddalore,"Semmandalam, Cuddalore - TNPCB",2026-07-03 19:00:00,11.7637683,79.7499835,NH3,6.0,6.0,6.0,"Semmandalam, Cuddalore - TNPCB|NH3|2026-07-03 19:00:00"
India,Tamil Nadu,Cuddalore,"Semmandalam, Cuddalore - TNPCB",2026-07-03 19:00:00,11.7637683,79.7499835,OZONE,1.0,2.0,2.0,"Semmandalam, Cuddalore - TNPCB|OZONE|2026-07-03 19:00:00"
India,Tamil Nadu,Thoothukudi,"Meelavittan, Thoothukudi - TNPCB",2026-07-03 19:00:00,8.816428,78.099039,NH3,,,,"Meelavittan, Thoothukudi - TNPCB|NH3|2026-07-03 19:00:00"
India,Telangana,Hyderabad,"New Malakpet, Hyderabad - TSPCB",2026-07-03 19:00:00,17.37206,78.50864,PM10,45.0,58.0,50.0,"New Malakpet, Hyderabad - TSPCB|PM10|2026-07-03 19:00:00"
India,Telangana,Hyderabad,"Ramachandrapuram, Hyderabad - TSPCB",2026-07-03 19:00:00,17.528544,78.286195,NO2,12.0,17.0,15.0,"Ramachandrapuram, Hyderabad - TSPCB|NO2|2026-07-03 19:00:00"
India,Telangana,Hyderabad,"Nacharam_TSIIC IALA, Hyderabad - TSPCB",2026-07-03 19:00:00,17.429398,78.569354,PM2.5,32.0,43.0,34.0,"Nacharam_TSIIC IALA, Hyderabad - TSPCB|PM2.5|2026-07-03 19:00:00"
India,Tripura,Agartala,"Bardowali, Agartala - Tripura SPCB",2026-07-03 19:00:00,23.8175497,91.2726974,NH3,5.0,7.0,5.0,"Bardowali, Agartala - Tripura SPCB|NH3|2026-07-03 19:00:00"
India,Uttar Pradesh,Agra,"Manoharpur, Agra - UPPCB",2026-07-03 19:00:00,27.23711,78.01936,PM10,81.0,120.0,94.0,"Manoharpur, Agra - UPPCB|PM10|2026-07-03 19:00:00"
India,Uttar Pradesh,Agra,"Rohta, Agra - UPPCB",2026-07-03 19:00:00,27.106972,78.000111,CO,11.0,21.0,18.0,"Rohta, Agra - UPPCB|CO|2026-07-03 19:00:00"
India,Uttar Pradesh,Agra,"Sector-3B Avas Vikas Colony, Agra - UPPCB",2026-07-03 19:00:00,27.19412,77.96237,SO2,14.0,15.0,15.0,"Sector-3B Avas Vikas Colony, Agra - UPPCB|SO2|2026-07-03 19:00:00"
India,Uttar Pradesh,Agra,"Shastripuram, Agra - UPPCB",2026-07-03 19:00:00,27.19862,77.92066,NH3,3.0,3.0,3.0,"Shastripuram, Agra - UPPCB|NH3|2026-07-03 19:00:00"
India,Rajasthan,Karauli,"Satyawati Vihar, Karauli - RSPCB",2026-07-03 19:00:00,26.506177,77.025989,CO,5.0,12.0,8.0,"Satyawati Vihar, Karauli - RSPCB|CO|2026-07-03 19:00:00"
India,Rajasthan,Khairthal,"New Anaj Mandi, Khairthal - RSPCB",2026-07-03 19:00:00,27.8015617,76.6365217,NO2,4.0,12.0,7.0,"New Anaj Mandi, Khairthal - RSPCB|NO2|2026-07-03 19:00:00"
India,Rajasthan,Khairthal,"New Anaj Mandi, Khairthal - RSPCB",2026-07-03 19:00:00,27.8015617,76.6365217,SO2,3.0,5.0,4.0,"New Anaj Mandi, Khairthal - RSPCB|SO2|2026-07-03 19:00:00"
India,Rajasthan,Khairthal,"New Anaj Mandi, Khairthal - RSPCB",2026-07-03 19:00:00,27.8015617,76.6365217,OZONE,29.0,35.0,31.0,"New Anaj Mandi, Khairthal - RSPCB|OZONE|2026-07-03 19:00:00"
India,Rajasthan,Kota,"Shrinath Puram, Kota - RSPCB",2026-07-03 19:00:00,25.14389,75.821256,PM10,32.0,98.0,57.0,"Shrinath Puram, Kota - RSPCB|PM10|2026-07-03 19:00:00"
India,Rajasthan,Kota,"Shrinath Puram, Kota - RSPCB",2026-07-03 19:00:00,25.14389,75.821256,NO2,12.0,18.0,15.0,"Shrinath Puram, Kota - RSPCB|NO2|2026-07-03 19:00:00"
India,Rajasthan,Kota,"Nayapura, Kota - RSPCB",2026-07-03 19:00:00,25.196024,75.855668,NO2,3.0,60.0,17.0,"Nayapura, Kota - RSPCB|NO2|2026-07-03 19:00:00"
India,Rajasthan,Bhiwadi,"RIICO Ind. Area III, Bhiwadi - RSPCB",2026-07-03 19:00:00,28.194909,76.862296,SO2,8.0,15.0,11.0,"RIICO Ind. Area III, Bhiwadi - RSPCB|SO2|2026-07-03 19:00:00"
India,Rajasthan,Bikaner,"MM Ground, Bikaner - RSPCB",2026-07-03 19:00:00,28.018792,73.292658,CO,13.0,24.0,15.0,"MM Ground, Bikaner - RSPCB|CO|2026-07-03 19:00:00"
India,Rajasthan,Bundi,"New Colony, Bundi - RSPCB",2026-07-03 19:00:00,25.435774,75.644272,PM2.5,2.0,38.0,18.0,"New Colony, Bundi - RSPCB|PM2.5|2026-07-03 19:00:00"
India,Rajasthan,Chittorgarh,"Shastri Nagar, Chittorgarh - RSPCB",2026-07-03 19:00:00,24.892047,74.623527,PM2.5,7.0,183.0,56.0,"Shastri Nagar, Chittorgarh - RSPCB|PM2.5|2026-07-03 19:00:00"
India,Uttar Pradesh,Kanpur,"Nehru Nagar, Kanpur - UPPCB",2026-07-03 19:00:00,26.4703136,80.3229863,PM2.5,3.0,483.0,87.0,"Nehru Nagar, Kanpur - UPPCB|PM2.5|2026-07-03 19:00:00"
India,Uttar Pradesh,Kanpur,"NSI Kalyanpur, Kanpur - UPPCB",2026-07-03 19:00:00,26.509954,80.249612,PM10,7.0,76.0,43.0,"NSI Kalyanpur, Kanpur - UPPCB|PM10|2026-07-03 19:00:00"
India,Uttar Pradesh,Kanpur,"NSI Kalyanpur, Kanpur - UPPCB",2026-07-03 19:00:00,26.509954,80.249612,CO,20.0,38.0,29.0,"NSI Kalyanpur, Kanpur - UPPCB|CO|2026-07-03 19:00:00"
India,Uttar Pradesh,Khora,"Prashant Garden, Khora - UPPCB",2026-07-03 19:00:00,28.61119,77.34206,PM10,49.0,174.0,118.0,"Prashant Garden, Khora - UPPCB|PM10|2026-07-03 19:00:00"
India,Uttar Pradesh,Khora,"Prashant Garden, Khora - UPPCB",2026-07-03 19:00:00,28.61119,77.34206,SO2,8.0,8.0,8.0,"Prashant Garden, Khora - UPPCB|SO2|2026-07-03 19:00:00"
India,Uttar Pradesh,Khora,"Prashant Garden, Khora - UPPCB",2026-07-03 19:00:00,28.61119,77.34206,OZONE,97.0,139.0,117.0,"Prashant Garden, Khora - UPPCB|OZONE|2026-07-03 19:00:00"
India,Uttar Pradesh,Khurja,"Kalindi Kunj, Khurja - UPPCB",2026-07-03 19:00:00,28.2348927,77.8683002,NO2,12.0,13.0,12.0,"Kalindi Kunj, Khurja - UPPCB|NO2|2026-07-03 19:00:00"
India,Uttar Pradesh,Khurja,"Kalindi Kunj, Khurja - UPPCB",2026-07-03 19:00:00,28.2348927,77.8683002,CO,17.0,44.0,32.0,"Kalindi Kunj, Khurja - UPPCB|CO|2026-07-03 19:00:00"
India,Uttar Pradesh,Lucknow,"Talkatora District Industries Center, Lucknow - CPCB",2026-07-03 19:00:00,26.83399722,80.8917361,NO2,24.0,42.0,30.0,"Talkatora District Industries Center, Lucknow - CPCB|NO2|2026-07-03 19:00:00"
India,Uttar Pradesh,Lucknow,"Talkatora District Industries Center, Lucknow - CPCB",2026-07-03 19:00:00,26.83399722,80.8917361,NH3,7.0,10.0,8.0,"Talkatora District Industries Center, Lucknow - CPCB|NH3|2026-07-03 19:00:00"
India,Uttar Pradesh,Lucknow,"Gomti Nagar, Lucknow - UPPCB",2026-07-03 19:00:00,26.86812,81.005119,PM10,3.0,45.0,23.0,"Gomti Nagar, Lucknow - UPPCB|PM10|2026-07-03 19:00:00"
India,Uttar Pradesh,Lucknow,"Gomti Nagar, Lucknow - UPPCB",2026-07-03 19:00:00,26.86812,81.005119,NO2,9.0,11.0,10.0,"Gomti Nagar, Lucknow - UPPCB|NO2|2026-07-03 19:00:00"
India,Uttar Pradesh,Lucknow,"Kukrail Picnic Spot-1, Lucknow - UPPCB",2026-07-03 19:00:00,26.90723,80.98579,SO2,6.0,11.0,7.0,"Kukrail Picnic Spot-1, Lucknow - UPPCB|SO2|2026-07-03 19:00:00"
India,Uttar Pradesh,Lucknow,"B R Ambedkar University, Lucknow - UPPCB",2026-07-03 19:00:00,26.766433,80.927299,NO2,11.0,12.0,12.0,"B R Ambedkar University, Lucknow - UPPCB|NO2|2026-07-03 19:00:00"
India,Uttar Pradesh,Lucknow,"B R Ambedkar University, Lucknow - UPPCB",2026-07-03 19:00:00,26.766433,80.927299,SO2,32.0,35.0,33.0,"B R Ambedkar University, Lucknow - UPPCB|SO2|2026-07-03 19:00:00"
India,Uttar Pradesh,Lucknow,"B R Ambedkar University, Lucknow - UPPCB",2026-07-03 19:00:00,26.766433,80.927299,OZONE,32.0,68.0,44.0,"B R Ambedkar University, Lucknow - UPPCB|OZONE|2026-07-03 19:00:00"
India,Uttar Pradesh,Lucknow,"Lalbagh, Lucknow - CPCB",2026-07-03 19:00:00,26.8458805,80.9365541,PM10,,,,"Lalbagh, Lucknow - CPCB|PM10|2026-07-03 19:00:00"
India,Uttar Pradesh,Lucknow,"Kendriya Vidyalaya, Lucknow - CPCB",2026-07-03 19:00:00,26.906111,80.948222,PM2.5,20.0,64.0,42.0,"Kendriya Vidyalaya, Lucknow - CPCB|PM2.5|2026-07-03 19:00:00"
India,West Bengal,Asansol,"Asansol Court Area, Asansol - WBPCB",2026-07-03 19:00:00,23.685297,86.945968,NO2,27.0,36.0,31.0,"Asansol Court Area, Asansol - WBPCB|NO2|2026-07-03 19:00:00"
India,West Bengal,Asansol,"Evelyn Lodge, Asansol - WBPCB",2026-07-03 19:00:00,23.697936,86.944395,NO2,9.0,29.0,15.0,"Evelyn Lodge, Asansol - WBPCB|NO2|2026-07-03 19:00:00"
India,West Bengal,Asansol,"Trivenidevi Bhalotia College, Asansol - WBPCB",2026-07-03 19:00:00,23.616515,87.119133,PM2.5,2.0,25.0,15.0,"Trivenidevi Bhalotia College, Asansol - WBPCB|PM2.5|2026-07-03 19:00:00"
India,West Bengal,Asansol,"Trivenidevi Bhalotia College, Asansol - WBPCB",2026-07-03 19:00:00,23.616515,87.119133,CO,22.0,55.0,29.0,"Trivenidevi Bhalotia College, Asansol - WBPCB|CO|2026-07-03 19:00:00"
India,West Bengal,Barrackpore,"SVSPA Campus, Barrackpore - WBPCB",2026-07-03 19:00:00,22.7605581,88.3617589,NH3,6.0,8.0,7.0,"SVSPA Campus, Barrackpore - WBPCB|NH3|2026-07-03 19:00:00"
India,West Bengal,Barrackpore,"SVSPA Campus, Barrackpore - WBPCB",2026-07-03 19:00:00,22.7605581,88.3617589,SO2,9.0,10.0,10.0,"SVSPA Campus, Barrackpore - WBPCB|SO2|2026-07-03 19:00:00"
India,West Bengal,Barrackpore,"SVSPA Campus, Barrackpore - WBPCB",2026-07-03 19:00:00,22.7605581,88.3617589,OZONE,4.0,14.0,9.0,"SVSPA Campus, Barrackpore - WBPCB|OZONE|2026-07-03 19:00:00"
India,West Bengal,Durgapur,"Mahishkapur Road_B-Zone, Durgapur - WBPCB",2026-07-03 19:00:00,23.567923,87.306843,PM2.5,0.0,20.0,8.0,"Mahishkapur Road_B-Zone, Durgapur - WBPCB|PM2.5|2026-07-03 19:00:00"
India,West Bengal,Durgapur,"Mahishkapur Road_B-Zone, Durgapur - WBPCB",2026-07-03 19:00:00,23.567923,87.306843,NH3,0.0,1.0,1.0,"Mahishkapur Road_B-Zone, Durgapur - WBPCB|NH3|2026-07-03 19:00:00"
India,West Bengal,Durgapur,"Mahishkapur Road_B-Zone, Durgapur - WBPCB",2026-07-03 19:00:00,23.567923,87.306843,CO,,,,"Mahishkapur Road_B-Zone, Durgapur - WBPCB|CO|2026-07-03 19:00:00"
India,West Bengal,Durgapur,"PCBL Residential Complex, Durgapur - WBPCB",2026-07-03 19:00:00,23.508764,87.35444,CO,20.0,25.0,22.0,"PCBL Residential Complex, Durgapur - WBPCB|CO|2026-07-03 19:00:00"
India,West Bengal,Haldia,"Priyambada Housing Estate, Haldia - WBPCB",2026-07-03 19:00:00,22.06047,88.109737,NH3,3.0,6.0,5.0,"Priyambada Housing Estate, Haldia - WBPCB|NH3|2026-07-03 19:00:00"
India,West Bengal,Haldia,"Priyambada Housing Estate, Haldia - WBPCB",2026-07-03 19:00:00,22.06047,88.109737,CO,14.0,47.0,29.0,"Priyambada Housing Estate, Haldia - WBPCB|CO|2026-07-03 19:00:00"
India,West Bengal,Howrah,"Dasnagar, Howrah - WBPCB",2026-07-03 19:00:00,22.6025571,88.3105664,PM2.5,2.0,50.0,25.0,"Dasnagar, Howrah - WBPCB|PM2.5|2026-07-03 19:00:00"
India,West Bengal,Howrah,"Padmapukur, Howrah - WBPCB",2026-07-03 19:00:00,22.5687319,88.2797276,NO2,17.0,48.0,29.0,"Padmapukur, Howrah - WBPCB|NO2|2026-07-03 19:00:00"
India,Uttar Pradesh,Prayagraj,"Jhunsi, Prayagraj - UPPCB",2026-07-03 19:00:00,25.425602,81.917152,OZONE,30.0,68.0,44.0,"Jhunsi, Prayagraj - UPPCB|OZONE|2026-07-03 19:00:00"
India,Uttar Pradesh,Raebareli,"Indira Nagar, Raebareli - NTPC Unchahar",2026-07-03 19:00:00,26.207781,81.245571,OZONE,4.0,9.0,7.0,"Indira Nagar, Raebareli - NTPC Unchahar|OZONE|2026-07-03 19:00:00"
India,Uttar Pradesh,Varanasi,"IESD Banaras Hindu University, Varanasi - UPPCB",2026-07-03 19:00:00,25.262326,82.995408,PM10,,,,"IESD Banaras Hindu University, Varanasi - UPPCB|PM10|2026-07-03 19:00:00"
India,Uttar Pradesh,Varanasi,"IESD Banaras Hindu University, Varanasi - UPPCB",2026-07-03 19:00:00,25.262326,82.995408,NO2,,,,"IESD Banaras Hindu University, Varanasi - UPPCB|NO2|2026-07-03 19:00:00"
India,Uttar Pradesh,Varanasi,"IESD Banaras Hindu University, Varanasi - UPPCB",2026-07-03 19:00:00,25.262326,82.995408,CO,3.0,3.0,3.0,"IESD Banaras Hindu University, Varanasi - UPPCB|CO|2026-07-03 19:00:00"
India,Uttar Pradesh,Varanasi,"Bhelupur, Varanasi - UPPCB",2026-07-03 19:00:00,25.301778,82.996789,NO2,8.0,8.0,8.0,"Bhelupur, Varanasi - UPPCB|NO2|2026-07-03 19:00:00"
India,Uttar Pradesh,Varanasi,"Bhelupur, Varanasi - UPPCB",2026-07-03 19:00:00,25.301778,82.996789,OZONE,4.0,15.0,9.0,"Bhelupur, Varanasi - UPPCB|OZONE|2026-07-03 19:00:00"
India,Uttar Pradesh,Vrindavan,"Omex Eternity, Vrindavan - UPPCB",2026-07-03 19:00:00,27.571409,77.655757,PM2.5,14.0,77.0,31.0,"Omex Eternity, Vrindavan - UPPCB|PM2.5|2026-07-03 19:00:00"
India,Uttar Pradesh,Vrindavan,"Omex Eternity, Vrindavan - UPPCB",2026-07-03 19:00:00,27.571409,77.655757,SO2,23.0,33.0,25.0,"Omex Eternity, Vrindavan - UPPCB|SO2|2026-07-03 19:00:00"
India,Uttarakhand,Dehradun,"Doon University, Dehradun - UKPCB",2026-07-03 19:00:00,30.269444,78.044167,PM2.5,6.0,68.0,38.0,"Doon University, Dehradun - UKPCB|PM2.5|2026-07-03 19:00:00"
India,Uttarakhand,Dehradun,"Doon University, Dehradun - UKPCB",2026-07-03 19:00:00,30.269444,78.044167,NO2,1.0,6.0,2.0,"Doon University, Dehradun - UKPCB|NO2|2026-07-03 19:00:00"
India,Uttarakhand,Dehradun,"Doon University, Dehradun - UKPCB",2026-07-03 19:00:00,30.269444,78.044167,SO2,0.0,1.0,0.0,"Doon University, Dehradun - UKPCB|SO2|2026-07-03 19:00:00"
India,Uttarakhand,Rishikesh,"Shivaji Nagar, Rishikesh - UKPCB",2026-07-03 19:00:00,30.075911,78.2859547,PM10,27.0,27.0,27.0,"Shivaji Nagar, Rishikesh - UKPCB|PM10|2026-07-03 19:00:00"
India,Uttarakhand,Rishikesh,"Shivaji Nagar, Rishikesh - UKPCB",2026-07-03 19:00:00,30.075911,78.2859547,CO,37.0,37.0,37.0,"Shivaji Nagar, Rishikesh - UKPCB|CO|2026-07-03 19:00:00"
India,West Bengal,Asansol,"Mahabir Colliery, Asansol - WBPCB",2026-07-03 19:00:00,23.618183,87.105718,NH3,0.0,0.0,0.0,"Mahabir Colliery, Asansol - WBPCB|NH3|2026-07-03 19:00:00"
India,Uttar Pradesh,Lucknow,"Kendriya Vidyalaya, Lucknow - CPCB",2026-07-03 19:00:00,26.906111,80.948222,CO,3.0,30.0,11.0,"Kendriya Vidyalaya, Lucknow - CPCB|CO|2026-07-03 19:00:00"
India,Uttar Pradesh,Mathura,"Pali Dungra, Mathura - UPPCB",2026-07-03 19:00:00,27.410954,77.550619,SO2,1.0,3.0,2.0,"Pali Dungra, Mathura - UPPCB|SO2|2026-07-03 19:00:00"
India,Uttar Pradesh,Meerut,"Jai Bhim Nagar, Meerut - UPPCB",2026-07-03 19:00:00,28.9535882,77.7622941,PM2.5,20.0,63.0,38.0,"Jai Bhim Nagar, Meerut - UPPCB|PM2.5|2026-07-03 19:00:00"
India,Uttar Pradesh,Meerut,"MIET College, Meerut - UPPCB",2026-07-03 19:00:00,28.972677,77.641018,PM2.5,116.0,241.0,177.0,"MIET College, Meerut - UPPCB|PM2.5|2026-07-03 19:00:00"
India,Uttar Pradesh,Meerut,"MIET College, Meerut - UPPCB",2026-07-03 19:00:00,28.972677,77.641018,SO2,2.0,6.0,3.0,"MIET College, Meerut - UPPCB|SO2|2026-07-03 19:00:00"
India,Uttar Pradesh,Meerut,"Ganga Nagar, Meerut - UPPCB",2026-07-03 19:00:00,28.999264,77.7590354,SO2,23.0,34.0,31.0,"Ganga Nagar, Meerut - UPPCB|SO2|2026-07-03 19:00:00"
India,Uttar Pradesh,Meerut,"Ganga Nagar, Meerut - UPPCB",2026-07-03 19:00:00,28.999264,77.7590354,CO,32.0,37.0,35.0,"Ganga Nagar, Meerut - UPPCB|CO|2026-07-03 19:00:00"
India,Uttar Pradesh,Modinagar,"SRM University, Modinagar - UPPCB",2026-07-03 19:00:00,28.798171,77.540243,OZONE,,,,"SRM University, Modinagar - UPPCB|OZONE|2026-07-03 19:00:00"
India,Uttar Pradesh,Moradabad,"Kashiram Nagar, Moradabad - UPPCB",2026-07-03 19:00:00,28.849399,78.742362,PM2.5,15.0,69.0,31.0,"Kashiram Nagar, Moradabad - UPPCB|PM2.5|2026-07-03 19:00:00"
India,Uttar Pradesh,Moradabad,"Kashiram Nagar, Moradabad - UPPCB",2026-07-03 19:00:00,28.849399,78.742362,NO2,24.0,25.0,24.0,"Kashiram Nagar, Moradabad - UPPCB|NO2|2026-07-03 19:00:00"
India,Uttar Pradesh,Moradabad,"Eco Herbal Park, Moradabad - UPPCB",2026-07-03 19:00:00,28.840739,78.697531,PM10,3.0,97.0,46.0,"Eco Herbal Park, Moradabad - UPPCB|PM10|2026-07-03 19:00:00"
India,Uttar Pradesh,Moradabad,"Buddhi Vihar, Moradabad - UPPCB",2026-07-03 19:00:00,28.83526,78.7446,SO2,24.0,24.0,24.0,"Buddhi Vihar, Moradabad - UPPCB|SO2|2026-07-03 19:00:00"
India,Uttar Pradesh,Moradabad,"Jigar Colony, Moradabad - UPPCB",2026-07-03 19:00:00,28.856664,78.772638,NO2,24.0,25.0,25.0,"Jigar Colony, Moradabad - UPPCB|NO2|2026-07-03 19:00:00"
India,Uttar Pradesh,Moradabad,"Employment Office, Moradabad - UPPCB",2026-07-03 19:00:00,28.88528,78.7388,CO,21.0,28.0,25.0,"Employment Office, Moradabad - UPPCB|CO|2026-07-03 19:00:00"
India,Uttar Pradesh,Moradabad,"Transport Nagar, Moradabad - UPPCB",2026-07-03 19:00:00,28.802625,78.753728,NH3,5.0,5.0,5.0,"Transport Nagar, Moradabad - UPPCB|NH3|2026-07-03 19:00:00"
India,Uttar Pradesh,Moradabad,"Transport Nagar, Moradabad - UPPCB",2026-07-03 19:00:00,28.802625,78.753728,SO2,18.0,19.0,18.0,"Transport Nagar, Moradabad - UPPCB|SO2|2026-07-03 19:00:00"
India,Uttar Pradesh,Muzaffarnagar,"New Mandi, Muzaffarnagar - UPPCB",2026-07-03 19:00:00,29.4723508,77.7194031,PM2.5,45.0,305.0,132.0,"New Mandi, Muzaffarnagar - UPPCB|PM2.5|2026-07-03 19:00:00"
India,Uttar Pradesh,Noida,"Sector - 125, Noida - UPPCB",2026-07-03 19:00:00,28.5447608,77.3231257,OZONE,29.0,45.0,35.0,"Sector - 125, Noida - UPPCB|OZONE|2026-07-03 19:00:00"
India,Uttar Pradesh,Noida,"Sector - 62, Noida - IITM",2026-07-03 19:00:00,28.6245479,77.3577104,PM10,42.0,102.0,71.0,"Sector - 62, Noida - IITM|PM10|2026-07-03 19:00:00"
India,Uttar Pradesh,Noida,"Sector - 62, Noida - IITM",2026-07-03 19:00:00,28.6245479,77.3577104,CO,13.0,16.0,14.0,"Sector - 62, Noida - IITM|CO|2026-07-03 19:00:00"
India,Uttar Pradesh,Noida,"Sector-1, Noida - UPPCB",2026-07-03 19:00:00,28.5898,77.3101,NO2,,,,"Sector-1, Noida - UPPCB|NO2|2026-07-03 19:00:00"
India,Uttar Pradesh,Noida,"Sector-1, Noida - UPPCB",2026-07-03 19:00:00,28.5898,77.3101,CO,26.0,46.0,34.0,"Sector-1, Noida - UPPCB|CO|2026-07-03 19:00:00"
India,Uttar Pradesh,Noida,"Sector-1, Noida - UPPCB",2026-07-03 19:00:00,28.5898,77.3101,OZONE,60.0,113.0,86.0,"Sector-1, Noida - UPPCB|OZONE|2026-07-03 19:00:00"
India,Uttar Pradesh,Prayagraj,"Nagar Nigam, Prayagraj - UPPCB",2026-07-03 19:00:00,25.44919916,81.82735986,PM10,8.0,71.0,28.0,"Nagar Nigam, Prayagraj - UPPCB|PM10|2026-07-03 19:00:00"
India,Uttar Pradesh,Prayagraj,"Nagar Nigam, Prayagraj - UPPCB",2026-07-03 19:00:00,25.44919916,81.82735986,NH3,6.0,7.0,7.0,"Nagar Nigam, Prayagraj - UPPCB|NH3|2026-07-03 19:00:00"
India,Uttar Pradesh,Prayagraj,"Jhunsi, Prayagraj - UPPCB",2026-07-03 19:00:00,25.425602,81.917152,PM2.5,3.0,39.0,25.0,"Jhunsi, Prayagraj - UPPCB|PM2.5|2026-07-03 19:00:00"
India,Uttar Pradesh,Prayagraj,"Jhunsi, Prayagraj - UPPCB",2026-07-03 19:00:00,25.425602,81.917152,NO2,6.0,6.0,6.0,"Jhunsi, Prayagraj - UPPCB|NO2|2026-07-03 19:00:00"
India,Uttar Pradesh,Ghaziabad,"Loni, Ghaziabad - UPPCB",2026-07-03 19:00:00,28.757294,77.278792,NH3,1.0,5.0,3.0,"Loni, Ghaziabad - UPPCB|NH3|2026-07-03 19:00:00"
India,Uttar Pradesh,Ghaziabad,"Indirapuram, Ghaziabad - UPPCB",2026-07-03 19:00:00,28.646233,77.358075,PM2.5,10.0,98.0,56.0,"Indirapuram, Ghaziabad - UPPCB|PM2.5|2026-07-03 19:00:00"
India,Uttar Pradesh,Ghaziabad,"Indirapuram, Ghaziabad - UPPCB",2026-07-03 19:00:00,28.646233,77.358075,PM10,55.0,135.0,98.0,"Indirapuram, Ghaziabad - UPPCB|PM10|2026-07-03 19:00:00"
India,Uttar Pradesh,Ghaziabad,"Indirapuram, Ghaziabad - UPPCB",2026-07-03 19:00:00,28.646233,77.358075,NO2,7.0,16.0,12.0,"Indirapuram, Ghaziabad - UPPCB|NO2|2026-07-03 19:00:00"
India,Uttar Pradesh,Ghaziabad,"Indirapuram, Ghaziabad - UPPCB",2026-07-03 19:00:00,28.646233,77.358075,NH3,6.0,15.0,9.0,"Indirapuram, Ghaziabad - UPPCB|NH3|2026-07-03 19:00:00"
India,Uttar Pradesh,Gorakhpur,"Madan Mohan Malaviya University of Technology, Gorakhpur - UPPCB",2026-07-03 19:00:00,26.730136,83.433859,NH3,1.0,1.0,1.0,"Madan Mohan Malaviya University of Technology, Gorakhpur - UPPCB|NH3|2026-07-03 19:00:00"
India,Uttar Pradesh,Gorakhpur,"Madan Mohan Malaviya University of Technology, Gorakhpur - UPPCB",2026-07-03 19:00:00,26.730136,83.433859,SO2,40.0,42.0,41.0,"Madan Mohan Malaviya University of Technology, Gorakhpur - UPPCB|SO2|2026-07-03 19:00:00"
India,Uttar Pradesh,Gorakhpur,"Madan Mohan Malaviya University of Technology, Gorakhpur - UPPCB",2026-07-03 19:00:00,26.730136,83.433859,OZONE,7.0,42.0,17.0,"Madan Mohan Malaviya University of Technology, Gorakhpur - UPPCB|OZONE|2026-07-03 19:00:00"
India,Uttar Pradesh,Greater Noida,"Knowledge Park - III, Greater Noida - UPPCB",2026-07-03 19:00:00,28.47272,77.482,NO2,10.0,33.0,16.0,"Knowledge Park - III, Greater Noida - UPPCB|NO2|2026-07-03 19:00:00"
